[{"Store Name": "Crystal", "Store Location": "SWC Broadway & Bass Lake Rd", "Address": "5537 W Broadway Ave", "City": "Crystal", "State": "MN", "Zip Code": "55428-3507", "Latitude": "45.0521539", "Longitude": "-93.364854", "County": "Hennepin County"}, {"Store Name": "Duluth", "Store Location": "SEC Hwy 53 & Burning Tree Rd", "Address": "1902 Miller Trunk Hwy", "City": "Duluth", "State": "MN", "Zip Code": "55811-1810", "Latitude": "46.808614", "Longitude": "-92.1681479", "County": "St Louis County"}, {"Store Name": "Bloomington", "Store Location": "NWC 80th & Penn", "Address": "2555 W 79th St", "City": "Bloomington", "State": "MN", "Zip Code": "55431-1250", "Latitude": "44.8595041", "Longitude": "-93.3112747", "County": "Hennepin County"}, {"Store Name": "Bridgeton", "Store Location": "NEC St Charles Rock Rd & Natural Brd", "Address": "12275 St Charles Rock Rd", "City": "Bridgeton", "State": "MO", "Zip Code": "63044-2502", "Latitude": "38.7539909", "Longitude": "-90.4258019", "County": "St Louis County"}, {"Store Name": "North Dallas", "Store Location": "NWC LBJ Fwy & Montfort Dr", "Address": "13131 Montfort Dr", "City": "Dallas", "State": "TX", "Zip Code": "75240-5112", "Latitude": "32.9279597", "Longitude": "-96.8135362", "County": "Dallas County"}, {"Store Name": "Tulsa", "Store Location": "NEC Yale Ave & 21st St", "Address": "1701 S Yale Ave", "City": "Tulsa", "State": "OK", "Zip Code": "74112-6221", "Latitude": "36.1375535", "Longitude": "-95.9200047", "County": "Tulsa County"}, {"Store Name": "Greenfield", "Store Location": "SWC Layton Ave & 27th Ave", "Address": "4777 S 27th St", "City": "Greenfield", "State": "WI", "Zip Code": "53221-2601", "Latitude": "42.9568702", "Longitude": "-87.9518737", "County": "Milwaukee County"}, {"Store Name": "Ballwin", "Store Location": "NWC Manchester & Holloway Rds", "Address": "15025 Manchester Rd", "City": "Ballwin", "State": "MO", "Zip Code": "63011-4626", "Latitude": "38.5949713", "Longitude": "-90.5470919", "County": "St Louis County"}, {"Store Name": "Oklahoma City North", "Store Location": "NEC NW 50th & N May Ave", "Address": "5400 N May Ave", "City": "Oklahoma City", "State": "OK", "Zip Code": "73112-5407", "Latitude": "35.5242645", "Longitude": "-97.5639463", "County": "Oklahoma County"}, {"Store Name": "Arvada", "Store Location": "SWC Wadsworth & W 80th", "Address": "7899 Wadsworth Blvd", "City": "Arvada", "State": "CO", "Zip Code": "80003-2107", "Latitude": "39.8402253", "Longitude": "-105.0819275", "County": "Jefferson County"}, {"Store Name": "Lake Street", "Store Location": "NEC Hwy 55 & Lake St", "Address": "2500 E Lake St", "City": "Minneapolis", "State": "MN", "Zip Code": "55406-1909", "Latitude": "44.949411", "Longitude": "-93.2370545", "County": "Hennepin County"}, {"Store Name": "Medallion", "Store Location": "SEC NW Hwy & Skillman Ave", "Address": "6464 E NORTHWEST HWY STE 212", "City": "Dallas", "State": "TX", "Zip Code": "75214-7802", "Latitude": "32.8570196", "Longitude": "-96.7531347", "County": "Dallas County"}, {"Store Name": "Fargo", "Store Location": "SEC 13th Ave S & 43rd St", "Address": "4202 13th Ave SW", "City": "Fargo", "State": "ND", "Zip Code": "58103-3308", "Latitude": "46.8600424", "Longitude": "-96.8523177", "County": "Cass County"}, {"Store Name": "Boulder", "Store Location": "SEC 28th & Pearl", "Address": "2800 Pearl St", "City": "Boulder", "State": "CO", "Zip Code": "80301-1123", "Latitude": "40.0216678", "Longitude": "-105.2560641", "County": "Boulder County"}, {"Store Name": "Plano", "Store Location": "SWC W Parker Rd & Hwy 75", "Address": "120 W Parker Rd", "City": "Plano", "State": "TX", "Zip Code": "75075-2331", "Latitude": "33.0369452", "Longitude": "-96.7078013", "County": "Collin County"}, {"Store Name": "East St Paul", "Store Location": "SWC I-94 & White Bear Ave", "Address": "1744 Suburban Ave", "City": "Saint Paul", "State": "MN", "Zip Code": "55106-6619", "Latitude": "44.9498979", "Longitude": "-93.0289915", "County": "Ramsey County"}, {"Store Name": "West Des Moines", "Store Location": "SWC University Ave & 35th", "Address": "1800 Valley West Dr", "City": "West Des Moines", "State": "IA", "Zip Code": "50266-1104", "Latitude": "41.5996578", "Longitude": "-93.7532915", "County": "Polk County"}, {"Store Name": "Westchase", "Store Location": "SWC Westheimer & Wilcrest", "Address": "10801 Westheimer Rd", "City": "Houston", "State": "TX", "Zip Code": "77042-3201", "Latitude": "29.735006", "Longitude": "-95.5678431", "County": "Harris County"}, {"Store Name": "Sioux Falls", "Store Location": "SEC S Louise Ave & 41st St", "Address": "3600 S Louise Ave", "City": "Sioux Falls", "State": "SD", "Zip Code": "57106-6326", "Latitude": "43.5122473", "Longitude": "-96.7687128", "County": "Minnehaha County"}, {"Store Name": "Alton", "Store Location": "NEC Homer Adams Pkwy & Alby Rd", "Address": "300 Homer M Adams Pkwy", "City": "Alton", "State": "IL", "Zip Code": "62002-5928", "Latitude": "38.9217093", "Longitude": "-90.1702929", "County": "Madison County"}, {"Store Name": "Fort Collins", "Store Location": "SWC Troutman & College", "Address": "105 W Troutman Pkwy", "City": "Fort Collins", "State": "CO", "Zip Code": "80525-3038", "Latitude": "40.5268884", "Longitude": "-105.0784551", "County": "Larimer County"}, {"Store Name": "Wichita Falls", "Store Location": "SEC Kemp Blvd & Elliot St", "Address": "4317 Kemp Blvd", "City": "Wichita Falls", "State": "TX", "Zip Code": "76308-3717", "Latitude": "33.8649109", "Longitude": "-98.533414", "County": "Wichita County"}, {"Store Name": "Waukesha", "Store Location": "SWC Hwy 18 & I-94", "Address": "2401 Kossow Rd", "City": "Waukesha", "State": "WI", "Zip Code": "53186-2904", "Latitude": "43.0342396", "Longitude": "-88.1768511", "County": "Waukesha County"}, {"Store Name": "Lubbock", "Store Location": "SWC Loop 289 & University", "Address": "7302 University Ave", "City": "Lubbock", "State": "TX", "Zip Code": "79423-1423", "Latitude": "33.5282468", "Longitude": "-101.8729513", "County": "Lubbock County"}, {"Store Name": "Minot", "Store Location": "SWC 52 Bypass South & 10th St SW", "Address": "2400 10th St SW", "City": "Minot", "State": "ND", "Zip Code": "58701-2013", "Latitude": "48.2062908", "Longitude": "-101.311629", "County": "Ward County"}, {"Store Name": "Dubuque", "Store Location": "SWC US Hwy 20 & Mercer Wacker", "Address": "3500 Dodge St", "City": "Dubuque", "State": "IA", "Zip Code": "52003-5261", "Latitude": "42.4905073", "Longitude": "-90.7217227", "County": "Dubuque County"}, {"Store Name": "Memphis Central", "Store Location": "SWC Colonial Rd & Poplar Ave", "Address": "601 Colonial Rd", "City": "Memphis", "State": "TN", "Zip Code": "38117-5132", "Latitude": "35.1135223", "Longitude": "-89.903388", "County": "Shelby County"}, {"Store Name": "Grand Junction", "Store Location": "NEC Hwy 6 & 24 Rd", "Address": "2424 Highway 6 and 50", "City": "Grand Junction", "State": "CO", "Zip Code": "81505-1109", "Latitude": "39.0951733", "Longitude": "-108.6034802", "County": "Mesa County"}, {"Store Name": "Austin North", "Store Location": "SEC Research Blvd & Ohlen Rd", "Address": "8601 Research Blvd", "City": "Austin", "State": "TX", "Zip Code": "78758-7121", "Latitude": "30.3627666", "Longitude": "-97.7154191", "County": "Travis County"}, {"Store Name": "Austin South", "Store Location": "SEC W Ben White S & Lamar Blvd", "Address": "2300 W Ben White Blvd", "City": "Austin", "State": "TX", "Zip Code": "78704-7525", "Latitude": "30.2334435", "Longitude": "-97.7915789", "County": "Travis County"}, {"Store Name": "Ridgedale", "Store Location": "SWC Plymouth & Hwy 12", "Address": "13201 Ridgedale Dr", "City": "Minnetonka", "State": "MN", "Zip Code": "55305-1809", "Latitude": "44.9698792", "Longitude": "-93.447915", "County": "Hennepin County"}, {"Store Name": "Evansville North", "Store Location": "NWC 1st Ave & Buena Vista Rd", "Address": "4000 1st Ave", "City": "Evansville", "State": "IN", "Zip Code": "47710-3614", "Latitude": "38.0155144", "Longitude": "-87.5769217", "County": "Vanderburgh County"}, {"Store Name": "Kokomo", "Store Location": "SWC US 31 & Markland", "Address": "1037 S Reed Rd", "City": "Kokomo", "State": "IN", "Zip Code": "46902-1929", "Latitude": "40.4758572", "Longitude": "-86.1076241", "County": "Howard County"}, {"Store Name": "Bloomington Normal", "Store Location": "SWC Veteran's Pkwy & Keller Rd", "Address": "301 Veterans Pkwy", "City": "Normal", "State": "IL", "Zip Code": "61761-2115", "Latitude": "40.5053365", "Longitude": "-88.9556389", "County": "McLean County"}, {"Store Name": "New Albany", "Store Location": "SWC State St & Captain Frank Rd", "Address": "2209 State St", "City": "New Albany", "State": "IN", "Zip Code": "47150-4924", "Latitude": "38.3049439", "Longitude": "-85.8418122", "County": "Floyd County"}, {"Store Name": "Rivergate", "Store Location": "NWC Gallatin Pike & Conference Dr", "Address": "2050 Gallatin Rd N", "City": "Madison", "State": "TN", "Zip Code": "37115-2002", "Latitude": "36.3045844", "Longitude": "-86.6941888", "County": "Davidson County"}, {"Store Name": "White Bridge", "Store Location": "NWC White Bridge Pk & Post Rd", "Address": "26 White Bridge Rd", "City": "Nashville", "State": "TN", "Zip Code": "37205-1411", "Latitude": "36.131056", "Longitude": "-86.8543849", "County": "Davidson County"}, {"Store Name": "Arapahoe", "Store Location": "SEC Arapahoe & I-25", "Address": "6767 S Clinton St", "City": "Englewood", "State": "CO", "Zip Code": "80112-3617", "Latitude": "39.5841054", "Longitude": "-104.8780193", "County": "Arapahoe County"}, {"Store Name": "Knoxville West", "Store Location": "NEC Ray Mears Blvd & Winston Rd", "Address": "8040 Ray Mears Blvd", "City": "Knoxville", "State": "TN", "Zip Code": "37919-5457", "Latitude": "35.921764", "Longitude": "-84.047831", "County": "Knox County"}, {"Store Name": "Racine", "Store Location": "NWC Ohio St & Rt 11", "Address": "5300 Durand Ave", "City": "Racine", "State": "WI", "Zip Code": "53406-5056", "Latitude": "42.6990583", "Longitude": "-87.8431188", "County": "Racine County"}, {"Store Name": "Colorado Springs North", "Store Location": "SWC Academy Blvd & Montebello", "Address": "5240 N Academy Blvd", "City": "Colorado Springs", "State": "CO", "Zip Code": "80918-4004", "Latitude": "38.9049199", "Longitude": "-104.7806994", "County": "El Paso County"}, {"Store Name": "Beaumont", "Store Location": "NEC Hwy 69/96 & Dowlen Rd", "Address": "5850 Eastex Fwy", "City": "Beaumont", "State": "TX", "Zip Code": "77708-4824", "Latitude": "30.1265511", "Longitude": "-94.1527447", "County": "Jefferson County"}, {"Store Name": "Little Rock North", "Store Location": "SWC McCain Blvd & Hwy 67", "Address": "4000 McCain Blvd", "City": "North Little Rock", "State": "AR", "Zip Code": "72116-8039", "Latitude": "34.7893476", "Longitude": "-92.2284247", "County": "Pulaski County"}, {"Store Name": "Casper", "Store Location": "SEC Hwy 25 & 2nd St", "Address": "401 SE Wyoming Blvd", "City": "Casper", "State": "WY", "Zip Code": "82609-4219", "Latitude": "42.847325", "Longitude": "-106.263975", "County": "Natrona County"}, {"Store Name": "Alexandria", "Store Location": "NEC Memorial Drive & Masonic Dr", "Address": "2206 Memorial Dr", "City": "Alexandria", "State": "LA", "Zip Code": "71301-3611", "Latitude": "31.2804409", "Longitude": "-92.4582981", "County": "Rapides Parish"}, {"Store Name": "Billings", "Store Location": "NWC Central Ave & 24th", "Address": "2601 Central Ave", "City": "Billings", "State": "MT", "Zip Code": "59102-6652", "Latitude": "45.7711784", "Longitude": "-108.582727", "County": "Yellowstone County"}, {"Store Name": "Bitters", "Store Location": "NEC Hwy 281 & Bitters Rd", "Address": "13700 San Pedro Ave", "City": "San Antonio", "State": "TX", "Zip Code": "78232-4332", "Latitude": "29.564629", "Longitude": "-98.4797604", "County": "Bexar County"}, {"Store Name": "Tucson Broadway", "Store Location": "NEC E Broadway & Rosemont", "Address": "5255 E Broadway Blvd", "City": "Tucson", "State": "AZ", "Zip Code": "85711-3702", "Latitude": "32.2232321", "Longitude": "-110.8806853", "County": "Pima County"}, {"Store Name": "Pacoima", "Store Location": "SWC Laurel Canyon & Osborne", "Address": "9725 Laurel Canyon Blvd", "City": "Pacoima", "State": "CA", "Zip Code": "91331-4100", "Latitude": "34.2451465", "Longitude": "-118.4193192", "County": "Los Angeles County"}, {"Store Name": "Alhambra", "Store Location": "SWC Palm St & Poplar Blvd", "Address": "2120 W Main St", "City": "Alhambra", "State": "CA", "Zip Code": "91801-1856", "Latitude": "34.091167", "Longitude": "-118.1471664", "County": "Los Angeles County"}, {"Store Name": "Orange Show", "Store Location": "SEC Orangeshow Rd & South St", "Address": "499 W Orange Show Rd", "City": "San Bernardino", "State": "CA", "Zip Code": "92408-2029", "Latitude": "34.0782565", "Longitude": "-117.2922189", "County": "San Bernardino County"}, {"Store Name": "Commerce", "Store Location": "SWC Whittier Blvd & Eastmont Ave", "Address": "5600 Whittier Blvd", "City": "Commerce", "State": "CA", "Zip Code": "90022-4106", "Latitude": "34.0166332", "Longitude": "-118.1508963", "County": "Los Angeles County"}, {"Store Name": "South Gate", "Store Location": "SWC Firestone & Garfield Eastern", "Address": "5700 Firestone Blvd", "City": "South Gate", "State": "CA", "Zip Code": "90280-3704", "Latitude": "33.9480396", "Longitude": "-118.1679095", "County": "Los Angeles County"}, {"Store Name": "Garden Grove Harbor", "Store Location": "SEC Harbor Blvd & Chapman Ave", "Address": "12100 Harbor Blvd", "City": "Garden Grove", "State": "CA", "Zip Code": "92840-4004", "Latitude": "33.7871978", "Longitude": "-117.9132408", "County": "Orange County"}, {"Store Name": "Brookhurst", "Store Location": "NWC Brookhurst & Westminster Av", "Address": "13831 Brookhurst St", "City": "Garden Grove", "State": "CA", "Zip Code": "92843-3120", "Latitude": "33.7619391", "Longitude": "-117.956338", "County": "Orange County"}, {"Store Name": "Long Beach Bellflower", "Store Location": "NEC Bellflower Blvd & 23rd St", "Address": "2270 N Bellflower Blvd", "City": "Long Beach", "State": "CA", "Zip Code": "90815-2017", "Latitude": "33.798013", "Longitude": "-118.1227191", "County": "Los Angeles County"}, {"Store Name": "Culver City", "Store Location": "SEC Jefferson Blvd & Cota St", "Address": "10820 Jefferson Blvd", "City": "Culver City", "State": "CA", "Zip Code": "90230-4935", "Latitude": "33.999198", "Longitude": "-118.393688", "County": "Los Angeles County"}, {"Store Name": "Manhattan Beach", "Store Location": "NEC Sepulveda & Manhattan Bch", "Address": "1200 N Sepulveda Blvd", "City": "Manhattan Beach", "State": "CA", "Zip Code": "90266-5104", "Latitude": "33.888458", "Longitude": "-118.3943292", "County": "Los Angeles County"}, {"Store Name": "Torrance", "Store Location": "NWC Sepulveda Blvd & Madrona Ave", "Address": "3433 Sepulveda Blvd", "City": "Torrance", "State": "CA", "Zip Code": "90505-2606", "Latitude": "33.8268676", "Longitude": "-118.3456196", "County": "Los Angeles County"}, {"Store Name": "Sports Arena", "Store Location": "NWC East Dr & Midway Dr", "Address": "3245 Sports Arena Blvd", "City": "San Diego", "State": "CA", "Zip Code": "92110-4529", "Latitude": "32.7514122", "Longitude": "-117.2102048", "County": "San Diego County"}, {"Store Name": "Chula Vista Broadway", "Store Location": "NWC Polomar St & Broadway", "Address": "1240 Broadway", "City": "Chula Vista", "State": "CA", "Zip Code": "91911-2911", "Latitude": "32.6046548", "Longitude": "-117.0810495", "County": "San Diego County"}, {"Store Name": "Kearny Mesa", "Store Location": "SEC Othello & Convoy St", "Address": "8001 Othello Ave", "City": "San Diego", "State": "CA", "Zip Code": "92111-3713", "Latitude": "32.816502", "Longitude": "-117.151055", "County": "San Diego County"}, {"Store Name": "Riverside", "Store Location": "NWC Tyler Ave & Hwy 91", "Address": "3520 Tyler St", "City": "Riverside", "State": "CA", "Zip Code": "92503-4175", "Latitude": "33.9065402", "Longitude": "-117.4599971", "County": "Riverside County"}, {"Store Name": "St Cloud", "Store Location": "NEC Division St & Park Ave", "Address": "4201 W Division St", "City": "Saint Cloud", "State": "MN", "Zip Code": "56301-6601", "Latitude": "45.5534647", "Longitude": "-94.2104446", "County": "Stearns County"}, {"Store Name": "Lincoln", "Store Location": "SWC 48th St & R St", "Address": "333 N 48th St", "City": "Lincoln", "State": "NE", "Zip Code": "68504-3505", "Latitude": "40.8163968", "Longitude": "-96.6554099", "County": "Lancaster County"}, {"Store Name": "Abilene", "Store Location": "SWC Buffalo Gap Dr & Hwy 84", "Address": "3710 Ridgemont Dr", "City": "Abilene", "State": "TX", "Zip Code": "79606-2726", "Latitude": "32.4056673", "Longitude": "-99.7676846", "County": "Taylor County"}, {"Store Name": "Eden Prairie", "Store Location": "SEC I- 494 & Flying Cloud Dr", "Address": "8225 Flying Cloud Dr", "City": "Eden Prairie", "State": "MN", "Zip Code": "55344-5315", "Latitude": "44.8557802", "Longitude": "-93.4255924", "County": "Hennepin County"}, {"Store Name": "Amarillo", "Store Location": "SEC Soncy Rd & I-40", "Address": "8201 I-40 W", "City": "Amarillo", "State": "TX", "Zip Code": "79121-1104", "Latitude": "35.1860744", "Longitude": "-101.9342896", "County": "Potter County"}, {"Store Name": "Puente Hills", "Store Location": "NWC Colima Rd & Walnut Hall Dr", "Address": "17751 Colima Rd", "City": "Rowland Heights", "State": "CA", "Zip Code": "91748-1714", "Latitude": "33.9921651", "Longitude": "-117.9189756", "County": "Los Angeles County"}, {"Store Name": "Milwaukee Chase", "Store Location": "NEC Chase Ave & Oklahoma Ave", "Address": "2950 S Chase Ave", "City": "Milwaukee", "State": "WI", "Zip Code": "53207-6407", "Latitude": "42.9916445", "Longitude": "-87.9076472", "County": "Milwaukee County"}, {"Store Name": "Cheyenne", "Store Location": "NWC Dell Range & Frontier Mall", "Address": "1708 Dell Range Blvd", "City": "Cheyenne", "State": "WY", "Zip Code": "82009-4945", "Latitude": "41.1619267", "Longitude": "-104.800476", "County": "Laramie County"}, {"Store Name": "Laverne", "Store Location": "SEC Foothill Blvd & White Ave", "Address": "2462 Foothill Blvd", "City": "La Verne", "State": "CA", "Zip Code": "91750-3056", "Latitude": "34.1096594", "Longitude": "-117.7598259", "County": "Los Angeles County"}, {"Store Name": "Santa Fe Springs", "Store Location": "SWC Carmanita & Telegraph", "Address": "10621 Carmenita Rd", "City": "Santa Fe Springs", "State": "CA", "Zip Code": "90670-4017", "Latitude": "33.9378224", "Longitude": "-118.0481685", "County": "Los Angeles County"}, {"Store Name": "West Hills", "Store Location": "NWC Fallbrook Ave & VictoryBlvd", "Address": "6635 Fallbrook Ave", "City": "West Hills", "State": "CA", "Zip Code": "91307-3520", "Latitude": "34.1903009", "Longitude": "-118.6267193", "County": "Los Angeles County"}, {"Store Name": "Cypress", "Store Location": "NWC Knott & Katella", "Address": "6835 Katella Ave", "City": "Cypress", "State": "CA", "Zip Code": "90630-5107", "Latitude": "33.804178", "Longitude": "-118.0131517", "County": "Orange County"}, {"Store Name": "Orange", "Store Location": "NEC Tustin Ave & Meats Ave", "Address": "2191 N Tustin St", "City": "Orange", "State": "CA", "Zip Code": "92865-3701", "Latitude": "33.824906", "Longitude": "-117.8345674", "County": "Orange County"}, {"Store Name": "Paradise Valley", "Store Location": "NWC Cactus & Paradise Village", "Address": "12602 N Paradise Village Pkwy W", "City": "Phoenix", "State": "AZ", "Zip Code": "85032-7671", "Latitude": "33.6005154", "Longitude": "-111.9895388", "County": "Maricopa County"}, {"Store Name": "Appleton", "Store Location": "SWC US Hwy 41 & Wisconsin Ave/US 10", "Address": "4301 W Wisconsin Ave", "City": "Appleton", "State": "WI", "Zip Code": "54913-8605", "Latitude": "44.2692534", "Longitude": "-88.4705139", "County": "Outagamie County"}, {"Store Name": "Columbia", "Store Location": "NWC US 740 & Worley St", "Address": "2400 Bernadette Dr", "City": "Columbia", "State": "MO", "Zip Code": "65203-4616", "Latitude": "38.9642585", "Longitude": "-92.3777163", "County": "Boone County"}, {"Store Name": "Brooklyn Center", "Store Location": "SWC Hwy 100 & I-94", "Address": "6100 Shingle Creek Pkwy", "City": "Brooklyn Center", "State": "MN", "Zip Code": "55430-2110", "Latitude": "45.0656526", "Longitude": "-93.3071825", "County": "Hennepin County"}, {"Store Name": "Lancaster", "Store Location": "SWC Ave", "Address": "43525 10th St W", "City": "Lancaster", "State": "CA", "Zip Code": "93534-6091", "Latitude": "34.6731439", "Longitude": "-118.1489924", "County": "Los Angeles County"}, {"Store Name": "Simi Valley", "Store Location": "SEC Cochran & Sycamore Dr", "Address": "2907 Cochran St", "City": "Simi Valley", "State": "CA", "Zip Code": "93065-2773", "Latitude": "34.2806247", "Longitude": "-118.739793", "County": "Ventura County"}, {"Store Name": "Westminster", "Store Location": "SEC Beach Blvd & Edinger", "Address": "16400 Beach Blvd", "City": "Westminster", "State": "CA", "Zip Code": "92683-7858", "Latitude": "33.725785", "Longitude": "-117.9857794", "County": "Orange County"}, {"Store Name": "Santa Ana", "Store Location": "SWC Bristol & Alton", "Address": "3300 S Bristol St", "City": "Santa Ana", "State": "CA", "Zip Code": "92704-7246", "Latitude": "33.7028408", "Longitude": "-117.887633", "County": "Orange County"}, {"Store Name": "Mesa Central", "Store Location": "NEC Southern Ave & Gilbert Rd", "Address": "1135 S Gilbert Rd", "City": "Mesa", "State": "AZ", "Zip Code": "85204-5205", "Latitude": "33.3944733", "Longitude": "-111.7854561", "County": "Maricopa County"}, {"Store Name": "Great Falls", "Store Location": "SEC US Hwy 89 & 20th St S", "Address": "2000 10th Ave S", "City": "Great Falls", "State": "MT", "Zip Code": "59405-2753", "Latitude": "47.4929634", "Longitude": "-111.2716905", "County": "Cascade County"}, {"Store Name": "San Angelo", "Store Location": "SWC Sunset Dr & Hwy 545", "Address": "4235 Sunset Dr", "City": "San Angelo", "State": "TX", "Zip Code": "76904-5653", "Latitude": "31.4321624", "Longitude": "-100.5013752", "County": "Tom Green County"}, {"Store Name": "Irving", "Store Location": "NEC Airport Frwy & Belt Line", "Address": "3333 W Airport Fwy", "City": "Irving", "State": "TX", "Zip Code": "75062-5921", "Latitude": "32.8393611", "Longitude": "-96.9908831", "County": "Dallas County"}, {"Store Name": "Aurora SE", "Store Location": "SEC Quincy & Buckley", "Address": "16910 E Quincy Ave", "City": "Aurora", "State": "CO", "Zip Code": "80015-2745", "Latitude": "39.6362171", "Longitude": "-104.7903463", "County": "Arapahoe County"}, {"Store Name": "Valencia", "Store Location": "NEC Magic Mtn Pkwy & McBean", "Address": "24425 Magic Mountain Pkwy", "City": "Valencia", "State": "CA", "Zip Code": "91355-3403", "Latitude": "34.421221", "Longitude": "-118.561725", "County": "Los Angeles County"}, {"Store Name": "Chino", "Store Location": "NEC St Hwy 60 & Central Ave", "Address": "5555 Philadelphia St", "City": "Chino", "State": "CA", "Zip Code": "91710-2481", "Latitude": "34.032775", "Longitude": "-117.681443", "County": "San Bernardino County"}, {"Store Name": "Aliso Viejo", "Store Location": "NEC La Paz & Pacific Park", "Address": "26932 La Paz Rd", "City": "Aliso Viejo", "State": "CA", "Zip Code": "92656-3038", "Latitude": "33.5712832", "Longitude": "-117.7053036", "County": "Orange County"}, {"Store Name": "St Louis Park", "Store Location": "NEC S Hwy 100 & 36th St", "Address": "3601 Highway 100 S", "City": "St Louis Park", "State": "MN", "Zip Code": "55416-2500", "Latitude": "44.9372613", "Longitude": "-93.3468877", "County": "Hennepin County"}, {"Store Name": "Las Vegas East", "Store Location": "SEC S Nellis & Charleston Blvd", "Address": "1200 S Nellis Blvd", "City": "Las Vegas", "State": "NV", "Zip Code": "89104-5752", "Latitude": "36.1583281", "Longitude": "-115.0604755", "County": "Clark County"}, {"Store Name": "Las Vegas Flamingo", "Store Location": "NWC Maryland Pkwy & Flamingo", "Address": "4001 S Maryland Pkwy", "City": "Las Vegas", "State": "NV", "Zip Code": "89119-7556", "Latitude": "36.1169665", "Longitude": "-115.1392707", "County": "Clark County"}, {"Store Name": "Roseville", "Store Location": "NWC Douglas & Rocky Ridge Dr", "Address": "1925 Douglas Blvd", "City": "Roseville", "State": "CA", "Zip Code": "95661-3834", "Latitude": "38.7458614", "Longitude": "-121.2543972", "County": "Placer County"}, {"Store Name": "Douglas County", "Store Location": "SWC University & Cty Line Rd", "Address": "1950 E County Line Rd", "City": "Highlands Ranch", "State": "CO", "Zip Code": "80126-2437", "Latitude": "39.5653137", "Longitude": "-104.9662815", "County": "Douglas County"}, {"Store Name": "Modesto", "Store Location": "SWC Standiford & McHenery", "Address": "3405 Mchenry Ave", "City": "Modesto", "State": "CA", "Zip Code": "95350-1445", "Latitude": "37.6873867", "Longitude": "-120.9963368", "County": "Stanislaus County"}, {"Store Name": "Escondido", "Store Location": "NEC Auto Pkwy S & Valley Pkwy", "Address": "1280 Auto Park Way", "City": "Escondido", "State": "CA", "Zip Code": "92029-2231", "Latitude": "33.1134817", "Longitude": "-117.0994063", "County": "San Diego County"}, {"Store Name": "Fresno West", "Store Location": "NWC Shaw & Marks", "Address": "3150 W Shaw Ave", "City": "Fresno", "State": "CA", "Zip Code": "93711-3215", "Latitude": "36.8096003", "Longitude": "-119.8478833", "County": "Fresno County"}, {"Store Name": "Lakeside", "Store Location": "NWC Hall Rd & Schoenherr Rd", "Address": "13221 Hall Rd", "City": "Shelby Township", "State": "MI", "Zip Code": "48315-5834", "Latitude": "42.6281134", "Longitude": "-82.9969415", "County": "Macomb County"}, {"Store Name": "Dearborn", "Store Location": "SWC Ford Rd & Greenfield Rd", "Address": "15901 Ford Rd", "City": "Dearborn", "State": "MI", "Zip Code": "48126-2800", "Latitude": "42.3274005", "Longitude": "-83.1989253", "County": "Wayne County"}, {"Store Name": "Southland", "Store Location": "NEC Pardee Rd & Eureka Rd", "Address": "14099 Pardee Rd", "City": "Taylor", "State": "MI", "Zip Code": "48180-4792", "Latitude": "42.2036998", "Longitude": "-83.2557377", "County": "Wayne County"}, {"Store Name": "Westland", "Store Location": "SWC Warren Rd & Yale Rd", "Address": "35401 Warren Rd", "City": "Westland", "State": "MI", "Zip Code": "48185-6590", "Latitude": "42.3368096", "Longitude": "-83.390852", "County": "Wayne County"}, {"Store Name": "Madison Heights", "Store Location": "NWC Whitcombe & John R. Rd", "Address": "32001 John R Rd", "City": "Madison Heights", "State": "MI", "Zip Code": "48071-1322", "Latitude": "42.5280197", "Longitude": "-83.1080278", "County": "Oakland County"}, {"Store Name": "Santa Ana", "Store Location": "SEC E 17th St & Grand Ave", "Address": "1330 E 17th St", "City": "Santa Ana", "State": "CA", "Zip Code": "92705-8500", "Latitude": "33.7590328", "Longitude": "-117.85008", "County": "Orange County"}, {"Store Name": "Woodland Hills", "Store Location": "NEC Ventura Blvd & Serrania Av", "Address": "20801 Ventura Blvd", "City": "Woodland Hills", "State": "CA", "Zip Code": "91364-2319", "Latitude": "34.1673392", "Longitude": "-118.5849804", "County": "Los Angeles County"}, {"Store Name": "Cerritos", "Store Location": "NEC Bloomfield & Del Amo Blvd", "Address": "20200 Bloomfield Ave", "City": "Cerritos", "State": "CA", "Zip Code": "90703-7821", "Latitude": "33.8469125", "Longitude": "-118.0620139", "County": "Los Angeles County"}, {"Store Name": "Gardena", "Store Location": "NEC Redondo Beach & Van Ness", "Address": "2169 W Redondo Beach Blvd", "City": "Gardena", "State": "CA", "Zip Code": "90247-3625", "Latitude": "33.8865203", "Longitude": "-118.3162124", "County": "Los Angeles County"}, {"Store Name": "Riverside Arlington", "Store Location": "NEC Arlington Ave & McMahon St", "Address": "3333 Arlington Ave", "City": "Riverside", "State": "CA", "Zip Code": "92506-3252", "Latitude": "33.9478659", "Longitude": "-117.3822372", "County": "Riverside County"}, {"Store Name": "Fullerton", "Store Location": "SEC Yorba Linda Blvd & Placentia", "Address": "2920 Yorba Linda Blvd", "City": "Fullerton", "State": "CA", "Zip Code": "92831-1523", "Latitude": "33.8878952", "Longitude": "-117.8779418", "County": "Orange County"}, {"Store Name": "North Hollywood", "Store Location": "NWC Victory Blvd & Vineland", "Address": "11051 Victory Blvd", "City": "North Hollywood", "State": "CA", "Zip Code": "91606-3719", "Latitude": "34.1883628", "Longitude": "-118.371261", "County": "Los Angeles County"}, {"Store Name": "Poway", "Store Location": "SEC Pomerado & Camino Del Norte", "Address": "14823 Pomerado Rd", "City": "Poway", "State": "CA", "Zip Code": "92064-2803", "Latitude": "32.980703", "Longitude": "-117.0603077", "County": "San Diego County"}, {"Store Name": "San Bernardino", "Store Location": "NWC N Sterling & Highland Aves", "Address": "2380 Sterling Ave", "City": "San Bernardino", "State": "CA", "Zip Code": "92404-4624", "Latitude": "34.1378708", "Longitude": "-117.2455898", "County": "San Bernardino County"}, {"Store Name": "Ventura", "Store Location": "SWC Hwy 101 & Telephone Rd", "Address": "4200 E Main St", "City": "Ventura", "State": "CA", "Zip Code": "93003-5230", "Latitude": "34.2612958", "Longitude": "-119.2367844", "County": "Ventura County"}, {"Store Name": "Northridge", "Store Location": "SEC Corbin Ave & Nordhoff", "Address": "8840 Corbin Ave", "City": "Northridge", "State": "CA", "Zip Code": "91324-3309", "Latitude": "34.2309701", "Longitude": "-118.5604565", "County": "Los Angeles County"}, {"Store Name": "Mission Viejo", "Store Location": "NEC Alicia Parkway & I-5", "Address": "24500 Alicia Pkwy", "City": "Mission Viejo", "State": "CA", "Zip Code": "92691-4508", "Latitude": "33.6063297", "Longitude": "-117.6881656", "County": "Orange County"}, {"Store Name": "Rancho Cucamonga", "Store Location": "NEC Foothill Blvd & Haven Ave", "Address": "10576 Foothill Blvd", "City": "Rancho Cucamonga", "State": "CA", "Zip Code": "91730-3890", "Latitude": "34.1087659", "Longitude": "-117.5742514", "County": "San Bernardino County"}, {"Store Name": "Duarte", "Store Location": "SEC Huntington Dr & Bradbury", "Address": "1050 Huntington Dr", "City": "Duarte", "State": "CA", "Zip Code": "91010-2475", "Latitude": "34.1395146", "Longitude": "-117.983267", "County": "Los Angeles County"}, {"Store Name": "Oceanside", "Store Location": "NWC El Camino Real & Vista Way", "Address": "2255 S El Camino Real", "City": "Oceanside", "State": "CA", "Zip Code": "92054-6318", "Latitude": "33.1842161", "Longitude": "-117.3302987", "County": "San Diego County"}, {"Store Name": "El Cajon", "Store Location": "NWC Broadway & Ballantyne", "Address": "250 Broadway", "City": "El Cajon", "State": "CA", "Zip Code": "92021-4539", "Latitude": "32.8097594", "Longitude": "-116.9593475", "County": "San Diego County"}, {"Store Name": "Mira Mesa", "Store Location": "SWC Mira Mesa Blvd & Camino Ruiz", "Address": "8251 Mira Mesa Blvd", "City": "San Diego", "State": "CA", "Zip Code": "92126-2603", "Latitude": "32.9102691", "Longitude": "-117.1460521", "County": "San Diego County"}, {"Store Name": "Palm Springs", "Store Location": "NEC Hwy 111 & Creek Rd", "Address": "67750 E Palm Canyon Dr", "City": "Cathedral City", "State": "CA", "Zip Code": "92234-5441", "Latitude": "33.7897836", "Longitude": "-116.4807792", "County": "Riverside County"}, {"Store Name": "Santa Maria", "Store Location": "NEC Broadway & Betteravia", "Address": "223 E Betteravia Rd", "City": "Santa Maria", "State": "CA", "Zip Code": "93454-7803", "Latitude": "34.9231123", "Longitude": "-120.4338081", "County": "Santa Barbara County"}, {"Store Name": "Sacramento Riverside", "Store Location": "SEC Riverside & Broadway", "Address": "2505 Riverside Blvd", "City": "Sacramento", "State": "CA", "Zip Code": "95818-2234", "Latitude": "38.5621828", "Longitude": "-121.4967731", "County": "Sacramento County"}, {"Store Name": "Sacramento Madison", "Store Location": "NWC Madison & Auburn Blvd", "Address": "5001 Madison Ave", "City": "Sacramento", "State": "CA", "Zip Code": "95841-2604", "Latitude": "38.6620974", "Longitude": "-121.3487711", "County": "Sacramento County"}, {"Store Name": "Sacramento Arden", "Store Location": "NWC Fulton & Alta-Arden Expwy", "Address": "1919 Fulton Ave", "City": "Sacramento", "State": "CA", "Zip Code": "95825-1905", "Latitude": "38.6010233", "Longitude": "-121.402855", "County": "Sacramento County"}, {"Store Name": "Stockton", "Store Location": "NEC Pacific Ave & March Ln", "Address": "4707 Pacific Ave", "City": "Stockton", "State": "CA", "Zip Code": "95207-6301", "Latitude": "37.9917766", "Longitude": "-121.3152705", "County": "San Joaquin County"}, {"Store Name": "Fresno South", "Store Location": "NEC 1st & Shields", "Address": "3173 E Shields Ave", "City": "Fresno", "State": "CA", "Zip Code": "93726-6902", "Latitude": "36.7808048", "Longitude": "-119.7709578", "County": "Fresno County"}, {"Store Name": "Chico", "Store Location": "SEC 20th St & I-99", "Address": "1951 E 20th St", "City": "Chico", "State": "CA", "Zip Code": "95928-6300", "Latitude": "39.7260081", "Longitude": "-121.8025425", "County": "Butte County"}, {"Store Name": "Yuba City", "Store Location": "NEC Butte House Rd & Hwy 99", "Address": "1153 Butte House Rd", "City": "Yuba City", "State": "CA", "Zip Code": "95991-3102", "Latitude": "39.1461393", "Longitude": "-121.6321623", "County": "Sutter County"}, {"Store Name": "Tempe", "Store Location": "NEC Baseline & McClintock Dr", "Address": "1818 E Baseline Rd", "City": "Tempe", "State": "AZ", "Zip Code": "85283-1502", "Latitude": "33.3796507", "Longitude": "-111.9078564", "County": "Maricopa County"}, {"Store Name": "Colma", "Store Location": "NEC Serramonte & Junipero Serra", "Address": "5001 Junipero Serra Blvd", "City": "Colma", "State": "CA", "Zip Code": "94014-3217", "Latitude": "37.6735217", "Longitude": "-122.4641526", "County": "San Mateo County"}, {"Store Name": "Redwood City", "Store Location": "SEC El Camino Real & Charter", "Address": "2485 El Camino Real", "City": "Redwood City", "State": "CA", "Zip Code": "94063-2849", "Latitude": "37.4756627", "Longitude": "-122.21706", "County": "San Mateo County"}, {"Store Name": "Mountain View", "Store Location": "NEC Showers Dr & Latham St", "Address": "555 Showers Dr", "City": "Mountain View", "State": "CA", "Zip Code": "94040-1432", "Latitude": "37.4010106", "Longitude": "-122.1060628", "County": "Santa Clara County"}, {"Store Name": "Cupertino", "Store Location": "NWC Stevens Creek & Bandley Dr", "Address": "20745 Stevens Creek Blvd", "City": "Cupertino", "State": "CA", "Zip Code": "95014-2123", "Latitude": "37.3241877", "Longitude": "-122.0361026", "County": "Santa Clara County"}, {"Store Name": "San Jose West", "Store Location": "NWC Hillsdale Ave & Ross Ave", "Address": "1811 Hillsdale Ave", "City": "San Jose", "State": "CA", "Zip Code": "95124-3027", "Latitude": "37.2651823", "Longitude": "-121.9188044", "County": "Santa Clara County"}, {"Store Name": "Dublin", "Store Location": "NWC Armador Plz & Armador Valley", "Address": "7200 Amador Plaza Rd", "City": "Dublin", "State": "CA", "Zip Code": "94568-2320", "Latitude": "37.7066601", "Longitude": "-121.931703", "County": "Alameda County"}, {"Store Name": "Pleasant Hill", "Store Location": "NWC Contra Costa Blvd & Chilpancingo", "Address": "560 Contra Costa Blvd", "City": "Pleasant Hill", "State": "CA", "Zip Code": "94523-1216", "Latitude": "37.9770576", "Longitude": "-122.0662835", "County": "Contra Costa County"}, {"Store Name": "Vallejo", "Store Location": "NEC Admrl Callaghan Lane & Old Turner", "Address": "904 Admiral Callaghan Lane", "City": "Vallejo", "State": "CA", "Zip Code": "94591-3680", "Latitude": "38.1317013", "Longitude": "-122.2226805", "County": "Solano County"}, {"Store Name": "Pittsburg", "Store Location": "NWC Century Blvd & Sommersville", "Address": "4301 Century Blvd", "City": "Pittsburg", "State": "CA", "Zip Code": "94565-7101", "Latitude": "38.008035", "Longitude": "-121.8400084", "County": "Contra Costa County"}, {"Store Name": "Corpus Christi", "Store Location": "SWC Padre Island & S Staples", "Address": "5425 S Padre Island Dr", "City": "Corpus Christi", "State": "TX", "Zip Code": "78411-5301", "Latitude": "27.7062311", "Longitude": "-97.3725033", "County": "Nueces County"}, {"Store Name": "Irvine", "Store Location": "SWC Barranca Pkwy & Culver Dr", "Address": "3750 Barranca Pkwy", "City": "Irvine", "State": "CA", "Zip Code": "92606-8200", "Latitude": "33.6853635", "Longitude": "-117.813286", "County": "Orange County"}, {"Store Name": "Everett", "Store Location": "NEC Everett Mall Way & 3rd Ave", "Address": "405 SE Everett Mall Way", "City": "Everett", "State": "WA", "Zip Code": "98208-3243", "Latitude": "47.9104403", "Longitude": "-122.2272725", "County": "Snohomish County"}, {"Store Name": "Lynnwood", "Store Location": "NWC Alderwood Mall Blvd & 26th", "Address": "18305 Alderwood Mall Pkwy", "City": "Lynnwood", "State": "WA", "Zip Code": "98037-3961", "Latitude": "47.8325478", "Longitude": "-122.2658377", "County": "Snohomish County"}, {"Store Name": "Factoria", "Store Location": "SWC 128th Ave SE & SE 38th Pl", "Address": "4053 Factoria Square Mall SE", "City": "Bellevue", "State": "WA", "Zip Code": "98006-1286", "Latitude": "47.5738676", "Longitude": "-122.1734605", "County": "King County"}, {"Store Name": "North Tacoma", "Store Location": "NEC Union Ave & Hwy 16", "Address": "3320 S 23rd St", "City": "Tacoma", "State": "WA", "Zip Code": "98405-1603", "Latitude": "47.2377955", "Longitude": "-122.4804022", "County": "Pierce County"}, {"Store Name": "Puyallup", "Store Location": "NWC Meridan St & 112st St E", "Address": "3310 S Meridian", "City": "Puyallup", "State": "WA", "Zip Code": "98373-3777", "Latitude": "47.1599835", "Longitude": "-122.2950817", "County": "Pierce County"}, {"Store Name": "Vancouver", "Store Location": "SWC SR 500 & NE Thurston", "Address": "7809C NE Vancouver Plaza Dr", "City": "Vancouver", "State": "WA", "Zip Code": "98662-6624", "Latitude": "45.6494936", "Longitude": "-122.5920898", "County": "Clark County"}, {"Store Name": "Beaverton", "Store Location": "NWC 107th & Beaverton-Hillsdale", "Address": "10775 SW Beaverton Hillsdale Hwy", "City": "Beaverton", "State": "OR", "Zip Code": "97005-3001", "Latitude": "45.4882021", "Longitude": "-122.7875252", "County": "Washington County"}, {"Store Name": "Washington Square", "Store Location": "SEC Hall Blvd & Schools Ferry Rd", "Address": "9009 SW Hall Blvd", "City": "Tigard", "State": "OR", "Zip Code": "97223-4432", "Latitude": "45.453707", "Longitude": "-122.7788138", "County": "Washington County"}, {"Store Name": "Clackamas", "Store Location": "SEC 90th & Sunnyside Rd", "Address": "9000 SE Sunnyside Rd", "City": "Clackamas", "State": "OR", "Zip Code": "97015-9758", "Latitude": "45.4316783", "Longitude": "-122.5702656", "County": "Clackamas County"}, {"Store Name": "Saginaw", "Store Location": "NEC Tittabawasse Rd & Bay St", "Address": "2772 Tittabawassee Rd", "City": "Saginaw", "State": "MI", "Zip Code": "48604-9433", "Latitude": "43.4832034", "Longitude": "-83.9708382", "County": "Saginaw County"}, {"Store Name": "Bellingham", "Store Location": "NWC I-5 & Meridan St", "Address": "30 Bellis Fair Pkwy", "City": "Bellingham", "State": "WA", "Zip Code": "98226-5573", "Latitude": "48.7868805", "Longitude": "-122.493556", "County": "Whatcom County"}, {"Store Name": "Lakewood", "Store Location": "NEC Gravelly Lk Dr & Wildaire Ct SW", "Address": "5618 Lakewood Town Center Blvd SW", "City": "Lakewood", "State": "WA", "Zip Code": "98499-3894", "Latitude": "47.1632549", "Longitude": "-122.51138", "County": "Pierce County"}, {"Store Name": "Flint", "Store Location": "SEC Miller Rd & Ketzer Dr", "Address": "G3515 Miller Rd", "City": "Flint", "State": "MI", "Zip Code": "48507-1273", "Latitude": "42.9753551", "Longitude": "-83.7517851", "County": "Genesee County"}, {"Store Name": "Rochester", "Store Location": "NEC Auburn Rd & Rochester Rd", "Address": "2887 S Rochester Rd", "City": "Rochester Hills", "State": "MI", "Zip Code": "48307-4580", "Latitude": "42.6376075", "Longitude": "-83.1291759", "County": "Oakland County"}, {"Store Name": "Dearborn Heights", "Store Location": "NWC Ford Rd & John-Daly", "Address": "26650 Ford Rd", "City": "Dearborn Heights", "State": "MI", "Zip Code": "48127-2841", "Latitude": "42.3285691", "Longitude": "-83.3023305", "County": "Wayne County"}, {"Store Name": "Canton", "Store Location": "NEC Ford Rd & Sheldon", "Address": "43670 Ford Rd", "City": "Canton", "State": "MI", "Zip Code": "48187-3101", "Latitude": "42.3231082", "Longitude": "-83.4709216", "County": "Wayne County"}, {"Store Name": "Topeka", "Store Location": "SEC Wanamaker Rd & 21st St", "Address": "2120 SW Wanamaker Rd", "City": "Topeka", "State": "KS", "Zip Code": "66614-5231", "Latitude": "39.0276387", "Longitude": "-95.7601807", "County": "Shawnee County"}, {"Store Name": "Albuquerque Wyoming", "Store Location": "SWC Montgomery & Chenault", "Address": "8510 Montgomery Blvd NE", "City": "Albuquerque", "State": "NM", "Zip Code": "87111-2307", "Latitude": "35.1297754", "Longitude": "-106.5475062", "County": "Bernalillo County"}, {"Store Name": "Albuquerque Lomas", "Store Location": "SEC Lomas & Hotel", "Address": "11120 Lomas Blvd NE", "City": "Albuquerque", "State": "NM", "Zip Code": "87112-5582", "Latitude": "35.0849774", "Longitude": "-106.527404", "County": "Bernalillo County"}, {"Store Name": "Clovis", "Store Location": "SEC Shaw Ave & N Clovis", "Address": "900 Shaw Ave", "City": "Clovis", "State": "CA", "Zip Code": "93612-3900", "Latitude": "36.8065463", "Longitude": "-119.698942", "County": "Fresno County"}, {"Store Name": "Rancho California", "Store Location": "NEC Rancho CA Rd & Ynez Rd", "Address": "29676 Rancho California Rd", "City": "Temecula", "State": "CA", "Zip Code": "92591-5283", "Latitude": "33.5068682", "Longitude": "-117.1459288", "County": "Riverside County"}, {"Store Name": "Eagan", "Store Location": "NWC Cliff Rd & I-35E", "Address": "2000 Cliff Lake Rd", "City": "Eagan", "State": "MN", "Zip Code": "55122-2400", "Latitude": "44.7917259", "Longitude": "-93.2054829", "County": "Dakota County"}, {"Store Name": "Lansing South", "Store Location": "SWC E Edgewood Blvd & Amwood", "Address": "500 E Edgewood Blvd", "City": "Lansing", "State": "MI", "Zip Code": "48911-5901", "Latitude": "42.6631287", "Longitude": "-84.5432194", "County": "Ingham County"}, {"Store Name": "Hillsboro", "Store Location": "NEC Tualatin Valley & 21st Ave", "Address": "2295 SE Tualatin Valley Hwy", "City": "Hillsboro", "State": "OR", "Zip Code": "97123-7915", "Latitude": "45.5075593", "Longitude": "-122.9570723", "County": "Washington County"}, {"Store Name": "Scottsdale", "Store Location": "NEC Pima Rd & Indian Bend Rd", "Address": "9000 E Talking Stick Way", "City": "Scottsdale", "State": "AZ", "Zip Code": "85250-8502", "Latitude": "33.5385024", "Longitude": "-111.8652089", "County": "Maricopa County"}, {"Store Name": "Wausau", "Store Location": "SEC SP.H. 29 & Alderson St", "Address": "2707 Schofield Ave", "City": "Schofield", "State": "WI", "Zip Code": "54476-2430", "Latitude": "44.9061135", "Longitude": "-89.5918251", "County": "Marathon County"}, {"Store Name": "East Lansing", "Store Location": "NEC Marsh Rd & Grand River Ave", "Address": "4890 Marsh Rd", "City": "Okemos", "State": "MI", "Zip Code": "48864-1123", "Latitude": "42.72476", "Longitude": "-84.412921", "County": "Ingham County"}, {"Store Name": "Lexington", "Store Location": "NWC Nicholasville & Reynolds Rd", "Address": "131 West Reynolds Rd", "City": "Lexington", "State": "KY", "Zip Code": "40503-3599", "Latitude": "37.9926477", "Longitude": "-84.5255484", "County": "Fayette County"}, {"Store Name": "Smyrna", "Store Location": "SEC Cobb Pkwy & Windy Hill", "Address": "2201 Cobb Pkwy SE", "City": "Smyrna", "State": "GA", "Zip Code": "30080-7633", "Latitude": "33.8980655", "Longitude": "-84.4789799", "County": "Cobb County"}, {"Store Name": "Grand Rapids North", "Store Location": "NEC Alpine Ave NW & I-96", "Address": "3248 Alpine Ave NW", "City": "Walker", "State": "MI", "Zip Code": "49544-1655", "Latitude": "43.0223237", "Longitude": "-85.6869115", "County": "Kent County"}, {"Store Name": "Omaha NW", "Store Location": "NEC 132nd St & West Maple Rd", "Address": "4001 N 132nd St", "City": "Omaha", "State": "NE", "Zip Code": "68164-1839", "Latitude": "41.2948728", "Longitude": "-96.1164365", "County": "Douglas County"}, {"Store Name": "Lawrence", "Store Location": "SWC US 59 & 33rd St", "Address": "3201 S Iowa St", "City": "Lawrence", "State": "KS", "Zip Code": "66046-5205", "Latitude": "38.9257422", "Longitude": "-95.2641662", "County": "Douglas County"}, {"Store Name": "Papillion", "Store Location": "NWC Cornhusker & 84th", "Address": "718 N Washington St", "City": "Papillion", "State": "NE", "Zip Code": "68046-3910", "Latitude": "41.1652241", "Longitude": "-96.0453839", "County": "Sarpy County"}, {"Store Name": "Davenport", "Store Location": "SWC 53rd St & I-74", "Address": "5225 Elmore Ave", "City": "Davenport", "State": "IA", "Zip Code": "52807-3454", "Latitude": "41.5728086", "Longitude": "-90.52598", "County": "Scott County"}, {"Store Name": "Kalamazoo", "Store Location": "SEC Westnedge & Crossroads Dr", "Address": "6839 S Westnedge Ave", "City": "Portage", "State": "MI", "Zip Code": "49002-3582", "Latitude": "42.2180032", "Longitude": "-85.5884121", "County": "Kalamazoo County"}, {"Store Name": "Sterling Heights", "Store Location": "NEC 15 Mile Rd & Van Dyke Ave", "Address": "35700 Van Dyke Ave", "City": "Sterling Heights", "State": "MI", "Zip Code": "48312-3564", "Latitude": "42.5564762", "Longitude": "-83.0266994", "County": "Macomb County"}, {"Store Name": "Silverdale", "Store Location": "SWC Clear Creek Rd & Hwy 3", "Address": "3201 NW Randall Way", "City": "Silverdale", "State": "WA", "Zip Code": "98383-7952", "Latitude": "47.6577023", "Longitude": "-122.6945878", "County": "Kitsap County"}, {"Store Name": "Olympia", "Store Location": "SWC Mud Bay Hwy SW & Kenyon", "Address": "2925 Harrison Ave NW", "City": "Olympia", "State": "WA", "Zip Code": "98502-2566", "Latitude": "47.0444904", "Longitude": "-122.9378943", "County": "Thurston County"}, {"Store Name": "Salem", "Store Location": "SWC Center & Morgan", "Address": "3790 Center St NE", "City": "Salem", "State": "OR", "Zip Code": "97301-2905", "Latitude": "44.9384041", "Longitude": "-122.9871899", "County": "Marion County"}, {"Store Name": "Albany", "Store Location": "NEC Geary & 14th Ave", "Address": "2255 14th Ave SE", "City": "Albany", "State": "OR", "Zip Code": "97322-8513", "Latitude": "44.6304262", "Longitude": "-123.078183", "County": "Linn County"}, {"Store Name": "Battle Creek", "Store Location": "NWC Beckley Rd & Hwy 66", "Address": "5700 Beckley Rd", "City": "Battle Creek", "State": "MI", "Zip Code": "49015-4184", "Latitude": "42.2601074", "Longitude": "-85.1847545", "County": "Calhoun County"}, {"Store Name": "Farmington Hills", "Store Location": "SEC Tuck Ave & 9 Mile Rd", "Address": "30020 Grand River Ave", "City": "Farmington Hills", "State": "MI", "Zip Code": "48336-4722", "Latitude": "42.4533446", "Longitude": "-83.3439732", "County": "Oakland County"}, {"Store Name": "Springfield", "Store Location": "NWC Gateway St & Harlow Rd", "Address": "2750 Gateway St", "City": "Springfield", "State": "OR", "Zip Code": "97477-1172", "Latitude": "44.0713809", "Longitude": "-123.0458915", "County": "Lane County"}, {"Store Name": "Medford", "Store Location": "SWC Crater Lake Hwy & Bear Creek", "Address": "2000 Crater Lake Hwy", "City": "Medford", "State": "OR", "Zip Code": "97504-4161", "Latitude": "42.3476405", "Longitude": "-122.8775852", "County": "Jackson County"}, {"Store Name": "Bakersfield NE", "Store Location": "NWC Bernard St & Oswell St", "Address": "3401 Mall View Rd", "City": "Bakersfield", "State": "CA", "Zip Code": "93306-3060", "Latitude": "35.3939395", "Longitude": "-118.954968", "County": "Kern County"}, {"Store Name": "Redding", "Store Location": "NEC Dana Drive & Churn Creek", "Address": "1280 Dana Dr", "City": "Redding", "State": "CA", "Zip Code": "96003-4038", "Latitude": "40.5866828", "Longitude": "-122.3482305", "County": "Shasta County"}, {"Store Name": "West Lansing", "Store Location": "SEC Hwy 43 & Mall Dr", "Address": "5609 W Saginaw Hwy", "City": "Lansing", "State": "MI", "Zip Code": "48917-2456", "Latitude": "42.7380862", "Longitude": "-84.6289627", "County": "Eaton County"}, {"Store Name": "Boise", "Store Location": "SWC Emerald St & Milwaukee St", "Address": "633 N Milwaukee St", "City": "Boise", "State": "ID", "Zip Code": "83704-9139", "Latitude": "43.6104191", "Longitude": "-116.2861996", "County": "Ada County"}, {"Store Name": "Pueblo", "Store Location": "NEC Dillon Dr & Hart Rd", "Address": "3300 Dillon Dr", "City": "Pueblo", "State": "CO", "Zip Code": "81008-1040", "Latitude": "38.3025098", "Longitude": "-104.6058645", "County": "Pueblo County"}, {"Store Name": "Shoreview", "Store Location": "SEC Lexington & I-694", "Address": "3800 Lexington Ave N", "City": "Shoreview", "State": "MN", "Zip Code": "55126-2916", "Latitude": "45.0563524", "Longitude": "-93.1440847", "County": "Ramsey County"}, {"Store Name": "LaCrosse", "Store Location": "SWC Hwy 53/90 & Rt 16", "Address": "9400 State Road 16", "City": "Onalaska", "State": "WI", "Zip Code": "54650-8540", "Latitude": "43.8714173", "Longitude": "-91.1950598", "County": "La Crosse County"}, {"Store Name": "Toledo NE", "Store Location": "SEC West Alexis Rd & Lewis Ave", "Address": "817 W Alexis Rd", "City": "Toledo", "State": "OH", "Zip Code": "43612-4303", "Latitude": "41.7207348", "Longitude": "-83.5603201", "County": "Lucas County"}, {"Store Name": "Toledo NW", "Store Location": "SEC US 223 & Nantucket Dr", "Address": "5225 Monroe St", "City": "Toledo", "State": "OH", "Zip Code": "43623-3139", "Latitude": "41.699086", "Longitude": "-83.65367", "County": "Lucas County"}, {"Store Name": "Toledo W", "Store Location": "NWC Airport Hwy & US Hwy 23", "Address": "1465 E Mall Dr", "City": "Holland", "State": "OH", "Zip Code": "43528-9490", "Latitude": "41.6157479", "Longitude": "-83.6948563", "County": "Lucas County"}, {"Store Name": "Albuquerque NW", "Store Location": "SWC Coors Rd & Irving Blvd", "Address": "9371 Coors Blvd NW", "City": "Albuquerque", "State": "NM", "Zip Code": "87114-4005", "Latitude": "35.1860743", "Longitude": "-106.6648139", "County": "Bernalillo County"}, {"Store Name": "San Jose Landess", "Store Location": "SWC Landess & Morrill", "Address": "2155 Morrill Ave", "City": "San Jose", "State": "CA", "Zip Code": "95132-1130", "Latitude": "37.4136896", "Longitude": "-121.8767235", "County": "Santa Clara County"}, {"Store Name": "South Center", "Store Location": "SWC Strander Blvd & Auburn Pk", "Address": "301 Strander Blvd", "City": "Tukwila", "State": "WA", "Zip Code": "98188-2971", "Latitude": "47.455156", "Longitude": "-122.2588641", "County": "King County"}, {"Store Name": "Longview", "Store Location": "SWC I-5 & Allen St", "Address": "205 Three Rivers Dr", "City": "Kelso", "State": "WA", "Zip Code": "98626-3127", "Latitude": "46.1423978", "Longitude": "-122.8987476", "County": "Cowlitz County"}, {"Store Name": "Port Huron", "Store Location": "SEC 24th St & Keewahdin", "Address": "4300 24th Ave", "City": "Fort Gratiot", "State": "MI", "Zip Code": "48059-3806", "Latitude": "43.0340745", "Longitude": "-82.4526788", "County": "St Clair County"}, {"Store Name": "Ann Arbor", "Store Location": "SWC I-94 & Ann Arbor Saline", "Address": "2000 Waters Rd", "City": "Ann Arbor", "State": "MI", "Zip Code": "48103-8999", "Latitude": "42.2438186", "Longitude": "-83.7698883", "County": "Washtenaw County"}, {"Store Name": "North Spokane", "Store Location": "SEC E Hawthorne & Hwy 2", "Address": "9770 N Newport Hwy", "City": "Spokane", "State": "WA", "Zip Code": "99218-1249", "Latitude": "47.7473763", "Longitude": "-117.3999614", "County": "Spokane County"}, {"Store Name": "West Seattle", "Store Location": "NWC SW Barton St & 26th Ave SW", "Address": "2800 SW Barton St", "City": "Seattle", "State": "WA", "Zip Code": "98126-3975", "Latitude": "47.5222572", "Longitude": "-122.3687536", "County": "King County"}, {"Store Name": "West Boca Raton", "Store Location": "NWC Hwy 441/7 & Palmetto Park", "Address": "21637 State Road 7", "City": "Boca Raton", "State": "FL", "Zip Code": "33428-1843", "Latitude": "26.3552768", "Longitude": "-80.2051127", "County": "Palm Beach County"}, {"Store Name": "Mesa East", "Store Location": "NEC Superstition Frwy & Power", "Address": "1525 S Power Rd", "City": "Mesa", "State": "AZ", "Zip Code": "85206-3707", "Latitude": "33.3883492", "Longitude": "-111.6830024", "County": "Maricopa County"}, {"Store Name": "Merced", "Store Location": "NWC Fairfield Dr &", "Address": "3280 R St", "City": "Merced", "State": "CA", "Zip Code": "95348-1954", "Latitude": "37.3228495", "Longitude": "-120.4848506", "County": "Merced County"}, {"Store Name": "Delray Beach", "Store Location": "SEC I-95 & Linton Blvd", "Address": "1200 Linton Blvd", "City": "Delray Beach", "State": "FL", "Zip Code": "33444-1115", "Latitude": "26.4370841", "Longitude": "-80.0851471", "County": "Palm Beach County"}, {"Store Name": "Apple Valley", "Store Location": "SEC Cedar Ave & 150th St", "Address": "15150 Cedar Ave", "City": "Apple Valley", "State": "MN", "Zip Code": "55124-7056", "Latitude": "44.7292156", "Longitude": "-93.2137413", "County": "Dakota County"}, {"Store Name": "Regency", "Store Location": "NWC Regency Sq & Monument Rd", "Address": "444 Monument Rd", "City": "Jacksonville", "State": "FL", "Zip Code": "32225-6429", "Latitude": "30.3293431", "Longitude": "-81.5481499", "County": "Duval County"}, {"Store Name": "Altamonte Springs", "Store Location": "SEC Semoran Dr & Forest City", "Address": "886 W State Road 436", "City": "Altamonte Springs", "State": "FL", "Zip Code": "32714-3006", "Latitude": "28.6625357", "Longitude": "-81.4180516", "County": "Seminole County"}, {"Store Name": "East Colonial", "Store Location": "NWC Maguire Blvd & E Colonial", "Address": "718 Maguire Blvd", "City": "Orlando", "State": "FL", "Zip Code": "32803-3706", "Latitude": "28.5557128", "Longitude": "-81.3450742", "County": "Orange County"}, {"Store Name": "Orlando South", "Store Location": "SEC Sand Lake Rd & Golden Sky Ln", "Address": "880 Sand Lake Rd", "City": "Orlando", "State": "FL", "Zip Code": "32809-7710", "Latitude": "28.4496054", "Longitude": "-81.3912566", "County": "Orange County"}, {"Store Name": "Boot Ranch", "Store Location": "NWC Hwy 584 & East Lake", "Address": "900 E Lake Rd", "City": "Palm Harbor", "State": "FL", "Zip Code": "34685-2430", "Latitude": "28.0634006", "Longitude": "-82.7076828", "County": "Pinellas County"}, {"Store Name": "Largo", "Store Location": "SEC Ulmerton Rd & Seminole Blvd", "Address": "10500 Ulmerton Rd", "City": "Largo", "State": "FL", "Zip Code": "33771-3544", "Latitude": "27.8922799", "Longitude": "-82.7854205", "County": "Pinellas County"}, {"Store Name": "North Dale Mabry", "Store Location": "NWC Dale Mabry Hwy & Ehrlich", "Address": "15240 N Dale Mabry Hwy", "City": "Tampa", "State": "FL", "Zip Code": "33618-1809", "Latitude": "28.0891267", "Longitude": "-82.5052781", "County": "Hillsborough County"}, {"Store Name": "University Plaza", "Store Location": "NWC Fletcher Ave & 30th St", "Address": "13658 University Plaza St", "City": "Tampa", "State": "FL", "Zip Code": "33613-4649", "Latitude": "28.0720124", "Longitude": "-82.4278292", "County": "Hillsborough County"}, {"Store Name": "Bemidji", "Store Location": "SEC Mdl Scl A & Paul Bunyan Dr", "Address": "2100 Paul Bunyan Dr NW", "City": "Bemidji", "State": "MN", "Zip Code": "56601-5645", "Latitude": "47.49317", "Longitude": "-94.9102503", "County": "Beltrami County"}, {"Store Name": "Moorhead", "Store Location": "SWC US 10 E Moorhead & 32nd St", "Address": "3301 Highway 10 E", "City": "Moorhead", "State": "MN", "Zip Code": "56560-2516", "Latitude": "46.8764255", "Longitude": "-96.7267246", "County": "Clay County"}, {"Store Name": "Brainerd", "Store Location": "NEC Hwy 371 & Design Dr", "Address": "14546 Dellwood Dr N", "City": "Baxter", "State": "MN", "Zip Code": "56425-9744", "Latitude": "46.3632813", "Longitude": "-94.2412564", "County": "Crow Wing County"}, {"Store Name": "Fontana", "Store Location": "SEC Sierra & I-10", "Address": "16964 Slover Ave", "City": "Fontana", "State": "CA", "Zip Code": "92337-7556", "Latitude": "34.06543", "Longitude": "-117.4342971", "County": "San Bernardino County"}, {"Store Name": "Willmar", "Store Location": "SEC 19th Ave & 1st St", "Address": "2505 1st St S", "City": "Willmar", "State": "MN", "Zip Code": "56201-4215", "Latitude": "45.0980918", "Longitude": "-95.0407494", "County": "Kandiyohi County"}, {"Store Name": "Cottage Grove", "Store Location": "NEC Hwy 61 & Jamaica", "Address": "8655 E Point Douglas Rd S", "City": "Cottage Grove", "State": "MN", "Zip Code": "55016-4035", "Latitude": "44.8147971", "Longitude": "-92.9301834", "County": "Washington County"}, {"Store Name": "Mankato", "Store Location": "SWC Hwy 14 & Hwy 22", "Address": "1850 Adams St", "City": "Mankato", "State": "MN", "Zip Code": "56001-4864", "Latitude": "44.1729626", "Longitude": "-93.9535766", "County": "Blue Earth County"}, {"Store Name": "Plymouth", "Store Location": "NEC Co Rd 9 & I-494", "Address": "4175 Vinewood Ln N", "City": "Plymouth", "State": "MN", "Zip Code": "55442-2624", "Latitude": "45.031779", "Longitude": "-93.450697", "County": "Hennepin County"}, {"Store Name": "Sarasota", "Store Location": "NEC US 41 & Marbeth", "Address": "8401 S Tamiami Trl", "City": "Sarasota", "State": "FL", "Zip Code": "34238-2927", "Latitude": "27.2285462", "Longitude": "-82.4925682", "County": "Sarasota County"}, {"Store Name": "Columbus NW", "Store Location": "NEC Sawmill & Tuller Pkwy", "Address": "6000 Sawmill Rd", "City": "Dublin", "State": "OH", "Zip Code": "43017-1626", "Latitude": "40.0898448", "Longitude": "-83.0892475", "County": "Franklin County"}, {"Store Name": "Southside", "Store Location": "NEC Southside & Deercreek Club", "Address": "9041 Southside Blvd", "City": "Jacksonville", "State": "FL", "Zip Code": "32256-5484", "Latitude": "30.1922734", "Longitude": "-81.549864", "County": "Duval County"}, {"Store Name": "Springfield", "Store Location": "SWC Veterans Pkwy & Lindbergh", "Address": "3445 Freedom Dr", "City": "Springfield", "State": "IL", "Zip Code": "62704-6517", "Latitude": "39.749719", "Longitude": "-89.7108465", "County": "Sangamon County"}, {"Store Name": "Traverse City", "Store Location": "NEC US 31 S. & Airport Rd", "Address": "3130 S Airport Rd W", "City": "Traverse City", "State": "MI", "Zip Code": "49684-8995", "Latitude": "44.7258148", "Longitude": "-85.6374687", "County": "Grand Traverse County"}, {"Store Name": "Midland", "Store Location": "NEC Eastman Rd & US 10", "Address": "6820 Eastman Ave", "City": "Midland", "State": "MI", "Zip Code": "48642-7805", "Latitude": "43.6576229", "Longitude": "-84.2471662", "County": "Midland County"}, {"Store Name": "Jackson", "Store Location": "SWC I-94 & Hwy 127", "Address": "1076 Jackson Xing", "City": "Jackson", "State": "MI", "Zip Code": "49202-2039", "Latitude": "42.2670278", "Longitude": "-84.4262076", "County": "Jackson County"}, {"Store Name": "Marion", "Store Location": "NWC Hwy 13 & Williamson Co Pkwy", "Address": "3000 W Deyoung St", "City": "Marion", "State": "IL", "Zip Code": "62959-5553", "Latitude": "37.7483665", "Longitude": "-88.9778958", "County": "Williamson County"}, {"Store Name": "Fairfield", "Store Location": "SWC Cadenasso St & Beck Ave", "Address": "2059 Cadenasso Dr", "City": "Fairfield", "State": "CA", "Zip Code": "94533-6806", "Latitude": "38.2464265", "Longitude": "-122.0688456", "County": "Solano County"}, {"Store Name": "Salinas", "Store Location": "SEC San Juan Grande & N Main", "Address": "1640 N Main St", "City": "Salinas", "State": "CA", "Zip Code": "93906-5102", "Latitude": "36.7140656", "Longitude": "-121.6524333", "County": "Monterey County"}, {"Store Name": "Anaheim Hills", "Store Location": "SWC E Santa Ana Canyon & Roosevelt", "Address": "8148 E Santa Ana Canyon Rd", "City": "Anaheim", "State": "CA", "Zip Code": "92808-1105", "Latitude": "33.8653728", "Longitude": "-117.7471019", "County": "Orange County"}, {"Store Name": "Coeur d'Alene", "Store Location": "NEC Hwy 95 & Canfield Rd", "Address": "315 W Canfield Ave", "City": "Coeur d'Alene", "State": "ID", "Zip Code": "83815-7750", "Latitude": "47.7350894", "Longitude": "-116.7914508", "County": "Kootenai County"}, {"Store Name": "Henderson", "Store Location": "NWC Stephanie & Sunset", "Address": "605 N Stephanie St", "City": "Henderson", "State": "NV", "Zip Code": "89014-2612", "Latitude": "36.0646849", "Longitude": "-115.048241", "County": "Clark County"}, {"Store Name": "Kent", "Store Location": "SWC 104th Ave & SE 260th St", "Address": "26301 104th Ave SE", "City": "Kent", "State": "WA", "Zip Code": "98030-7649", "Latitude": "47.3663846", "Longitude": "-122.203265", "County": "King County"}, {"Store Name": "Germantown", "Store Location": "SEC Hwy 72 & Forest Hill-Irene", "Address": "9235 Poplar Ave", "City": "Germantown", "State": "TN", "Zip Code": "38138-7903", "Latitude": "35.0648452", "Longitude": "-89.7555", "County": "Shelby County"}, {"Store Name": "Woodlands", "Store Location": "NWC Lake Woodlands Dr & I-45", "Address": "1100 Lake Woodlands Dr", "City": "The Woodlands", "State": "TX", "Zip Code": "77380-3221", "Latitude": "30.16982", "Longitude": "-95.4536808", "County": "Montgomery County"}, {"Store Name": "Palmdale", "Store Location": "SEC Ave", "Address": "39440 10th St W", "City": "Palmdale", "State": "CA", "Zip Code": "93551-3747", "Latitude": "34.5997867", "Longitude": "-118.1462925", "County": "Los Angeles County"}, {"Store Name": "Pensacola", "Store Location": "SWC Bayou Blvd & Askew Dr", "Address": "4711 Bayou Blvd", "City": "Pensacola", "State": "FL", "Zip Code": "32503-2607", "Latitude": "30.4684724", "Longitude": "-87.2087375", "County": "Escambia County"}, {"Store Name": "Gainesville", "Store Location": "NEC SW Archer Rd & Hwy 75", "Address": "3970 SW Archer Rd", "City": "Gainesville", "State": "FL", "Zip Code": "32608-2342", "Latitude": "29.6211973", "Longitude": "-82.3842342", "County": "Alachua County"}, {"Store Name": "Daytona Beach", "Store Location": "NEC Williamson & Volusia Dr", "Address": "2380 W International Speedway Blvd", "City": "Daytona Beach", "State": "FL", "Zip Code": "32114-1116", "Latitude": "29.1839244", "Longitude": "-81.0800694", "County": "Volusia County"}, {"Store Name": "Melbourne", "Store Location": "NEC New Haven Ave & Dayton Blvd", "Address": "2750 W New Haven Ave", "City": "Melbourne Village", "State": "FL", "Zip Code": "32904-3706", "Latitude": "28.0803942", "Longitude": "-80.6654944", "County": "Brevard County"}, {"Store Name": "Port Charlotte", "Store Location": "SEC Rte 776 & US 41", "Address": "1400A Tamiami Trl", "City": "Port Charlotte", "State": "FL", "Zip Code": "33948-1004", "Latitude": "27.013019", "Longitude": "-82.1421002", "County": "Charlotte County"}, {"Store Name": "Novato", "Store Location": "SEC Hwy 101 & E Rowland Blvd", "Address": "200 Vintage Way", "City": "Novato", "State": "CA", "Zip Code": "94945-5005", "Latitude": "38.0902263", "Longitude": "-122.5528469", "County": "Marin County"}, {"Store Name": "Brooklyn Park", "Store Location": "SWC Broadway & 77th Blvd", "Address": "7535 W Broadway Ave", "City": "Brooklyn Park", "State": "MN", "Zip Code": "55428-1287", "Latitude": "45.0909266", "Longitude": "-93.3785887", "County": "Hennepin County"}, {"Store Name": "Woodbury", "Store Location": "NEC I-494 & Valley Creek Rd", "Address": "7200 Valley Creek Plz", "City": "Woodbury", "State": "MN", "Zip Code": "55125-2265", "Latitude": "44.9266581", "Longitude": "-92.9589959", "County": "Washington County"}, {"Store Name": "Cool Springs", "Store Location": "SWC Moores Lane & I-65", "Address": "1701 Galleria Blvd", "City": "Franklin", "State": "TN", "Zip Code": "37067-1602", "Latitude": "35.9660895", "Longitude": "-86.8127669", "County": "Williamson County"}, {"Store Name": "Burlington", "Store Location": "NEC Gilkey Rd & I-5", "Address": "199 Cascade Mall Dr", "City": "Burlington", "State": "WA", "Zip Code": "98233-3251", "Latitude": "48.4658017", "Longitude": "-122.3389694", "County": "Skagit County"}, {"Store Name": "Twin Falls", "Store Location": "SWC Blue Lakes & Pole Line", "Address": "1611 Blue Lakes Blvd N", "City": "Twin Falls", "State": "ID", "Zip Code": "83301-3374", "Latitude": "42.5912036", "Longitude": "-114.4634832", "County": "Twin Falls County"}, {"Store Name": "Oro Valley", "Store Location": "SWC Oracle (Rte 77) & 1st Ave", "Address": "10555 N Oracle Rd", "City": "Oro Valley", "State": "AZ", "Zip Code": "85737-9353", "Latitude": "32.3991424", "Longitude": "-110.9601621", "County": "Pima County"}, {"Store Name": "Highland", "Store Location": "NEC 53rd Ave & US 41", "Address": "10451 Indianapolis Blvd", "City": "Highland", "State": "IN", "Zip Code": "46322-3511", "Latitude": "41.5242801", "Longitude": "-87.4681352", "County": "Lake County"}, {"Store Name": "Cicero", "Store Location": "SEC Cicero & 26th", "Address": "2901 S Cicero Ave", "City": "Cicero", "State": "IL", "Zip Code": "60804-3637", "Latitude": "41.8396687", "Longitude": "-87.7411577", "County": "Cook County"}, {"Store Name": "Edwardsville", "Store Location": "NEC Hwy 159 & Goshen Rd", "Address": "2350 Troy Rd", "City": "Edwardsville", "State": "IL", "Zip Code": "62025-2584", "Latitude": "38.7831926", "Longitude": "-89.9484513", "County": "Madison County"}, {"Store Name": "Albany", "Store Location": "NEC Dawson Rd & N Westover B", "Address": "2721 Dawson Rd", "City": "Albany", "State": "GA", "Zip Code": "31707-1672", "Latitude": "31.6217583", "Longitude": "-84.2249829", "County": "Dougherty County"}, {"Store Name": "Sierra Vista", "Store Location": "NEC Hwy 90 & Hwy 92", "Address": "4151 E Highway 90", "City": "Sierra Vista", "State": "AZ", "Zip Code": "85635-2425", "Latitude": "31.5562659", "Longitude": "-110.2557286", "County": "Cochise County"}, {"Store Name": "Norco", "Store Location": "SWC Hamner Ave & 1st St", "Address": "1290 Hamner Ave", "City": "Norco", "State": "CA", "Zip Code": "92860-3117", "Latitude": "33.900267", "Longitude": "-117.5647812", "County": "Riverside County"}, {"Store Name": "Pinole", "Store Location": "NEC I-80 & Atlas Rd", "Address": "1400 Fitzgerald Dr", "City": "Pinole", "State": "CA", "Zip Code": "94564-2250", "Latitude": "37.9875504", "Longitude": "-122.3090207", "County": "Contra Costa County"}, {"Store Name": "Tracy", "Store Location": "NWC I-205 & Grant Line Rd", "Address": "2800 Naglee Rd", "City": "Tracy", "State": "CA", "Zip Code": "95304-7307", "Latitude": "37.7574334", "Longitude": "-121.457972", "County": "San Joaquin County"}, {"Store Name": "S Colorado Springs", "Store Location": "SWC Lake Ave & Cheyenne Mtn Blvd", "Address": "1630 E Cheyenne Mountain Blvd", "City": "Colorado Springs", "State": "CO", "Zip Code": "80906-4050", "Latitude": "38.7923798", "Longitude": "-104.8017387", "County": "El Paso County"}, {"Store Name": "Mary Esther", "Store Location": "NWC Mary Esther Cutoff & US 98", "Address": "250 E Miracle Strip Pkwy", "City": "Mary Esther", "State": "FL", "Zip Code": "32569-1924", "Latitude": "30.4110031", "Longitude": "-86.6592856", "County": "Okaloosa County"}, {"Store Name": "Kendall", "Store Location": "NEC Kendall & S Hammocks Blvd", "Address": "15005 SW 88th St", "City": "Miami", "State": "FL", "Zip Code": "33196-1314", "Latitude": "25.6856162", "Longitude": "-80.4377348", "County": "Miami-Dade County"}, {"Store Name": "Lawrenceville", "Store Location": "NWC Rt 120 & 317", "Address": "875 Lawrenceville Suwanee Rd", "City": "Lawrenceville", "State": "GA", "Zip Code": "30043-8479", "Latitude": "33.9684108", "Longitude": "-84.0175755", "County": "Gwinnett County"}, {"Store Name": "Riverwood", "Store Location": "SEC State Bridg & Medlock Brid", "Address": "5950 State Bridge Rd", "City": "Duluth", "State": "GA", "Zip Code": "30097-6438", "Latitude": "34.0144235", "Longitude": "-84.1888597", "County": "Fulton County"}, {"Store Name": "Valdosta", "Store Location": "NEC Norman & St Augustine(.5 mi N)", "Address": "1815 Norman Dr", "City": "Valdosta", "State": "GA", "Zip Code": "31601-3502", "Latitude": "30.8431388", "Longitude": "-83.3160098", "County": "Lowndes County"}, {"Store Name": "Vadnais Heights", "Store Location": "NWC I-35E & CR E", "Address": "975 County Road E", "City": "Vadnais Heights", "State": "MN", "Zip Code": "55127-7114", "Latitude": "45.0526758", "Longitude": "-93.0601751", "County": "Ramsey County"}, {"Store Name": "Jefferson City", "Store Location": "SEC Stadium & Missouri", "Address": "735 W Stadium Blvd", "City": "Jefferson City", "State": "MO", "Zip Code": "65109-4753", "Latitude": "38.5791156", "Longitude": "-92.2136742", "County": "Cole County"}, {"Store Name": "Palatine", "Store Location": "SEC Dundee Road & Hicks Rd", "Address": "679 E Dundee Rd", "City": "Palatine", "State": "IL", "Zip Code": "60074-2817", "Latitude": "42.1371253", "Longitude": "-88.0271085", "County": "Cook County"}, {"Store Name": "North Jackson", "Store Location": "SWC I-55 & East County Line Rd", "Address": "6365 I 55 N", "City": "Jackson", "State": "MS", "Zip Code": "39213-9742", "Latitude": "32.3959839", "Longitude": "-90.1457703", "County": "Hinds County"}, {"Store Name": "Fayetteville", "Store Location": "SWC Skibo Rd & Chasen Ridge", "Address": "2056 Skibo Rd", "City": "Fayetteville", "State": "NC", "Zip Code": "28314-2245", "Latitude": "35.055252", "Longitude": "-78.9750812", "County": "Cumberland County"}, {"Store Name": "Johnson City", "Store Location": "SEC N Roan & Broyles", "Address": "2116 N Roan St", "City": "Johnson City", "State": "TN", "Zip Code": "37601-2535", "Latitude": "36.3424833", "Longitude": "-82.3739673", "County": "Washington County"}, {"Store Name": "Owensboro", "Store Location": "SEC US 431 & Southtown Blvd", "Address": "5151 Frederica St", "City": "Owensboro", "State": "KY", "Zip Code": "42301-7443", "Latitude": "37.7170323", "Longitude": "-87.1221587", "County": "Daviess County"}, {"Store Name": "Eastchase", "Store Location": "SWC I-30 & Eastchase Pkwy", "Address": "8550 East Fwy", "City": "Fort Worth", "State": "TX", "Zip Code": "76120-4414", "Latitude": "32.7589223", "Longitude": "-97.1680061", "County": "Tarrant County"}, {"Store Name": "Potomac Mills", "Store Location": "NEC Prince Wlm Pkwy & Telegraph", "Address": "2460 Prince William Pkwy", "City": "Woodbridge", "State": "VA", "Zip Code": "22192-4148", "Latitude": "38.6548592", "Longitude": "-77.2891556", "County": "Prince William County"}, {"Store Name": "Yakima", "Store Location": "NWC Yakima Ave & I-82/US 97", "Address": "12 N Fair Ave", "City": "Yakima", "State": "WA", "Zip Code": "98901-4520", "Latitude": "46.6061639", "Longitude": "-120.4903979", "County": "Yakima County"}, {"Store Name": "Hemet", "Store Location": "SWC Florida Ave & Sanderson Av", "Address": "3527 W Florida Ave", "City": "Hemet", "State": "CA", "Zip Code": "92545-3564", "Latitude": "33.7472224", "Longitude": "-117.0094403", "County": "Riverside County"}, {"Store Name": "Pineville", "Store Location": "NEC US 521 & I-485", "Address": "9531 South Blvd", "City": "Charlotte", "State": "NC", "Zip Code": "28273-6901", "Latitude": "35.1083479", "Longitude": "-80.8787465", "County": "Mecklenburg County"}, {"Store Name": "Bend", "Store Location": "NWC Hwy 97 & Robal Lane", "Address": "63435 N Highway 97", "City": "Bend", "State": "OR", "Zip Code": "97701-7802", "Latitude": "44.1042119", "Longitude": "-121.3009601", "County": "Deschutes County"}, {"Store Name": "San Dimas", "Store Location": "SWC I-210 & Arrow Hwy", "Address": "888 W Arrow Hwy", "City": "San Dimas", "State": "CA", "Zip Code": "91773-2495", "Latitude": "34.1041016", "Longitude": "-117.8237828", "County": "Los Angeles County"}, {"Store Name": "West Jordan", "Store Location": "NWC 7000 South & Redwood Rd", "Address": "6748 Redwood Rd", "City": "West Jordan", "State": "UT", "Zip Code": "84084-2403", "Latitude": "40.6286816", "Longitude": "-111.9411208", "County": "Salt Lake County"}, {"Store Name": "Las Cruces", "Store Location": "NEC I-25 & Lohman", "Address": "2541 E Lohman Ave", "City": "Las Cruces", "State": "NM", "Zip Code": "88011-8233", "Latitude": "32.317939", "Longitude": "-106.7442809", "County": "Do\u00c3\u00b1a Ana County"}, {"Store Name": "Midland", "Store Location": "SWC Loop 250 & Midland Dr", "Address": "4001 N Midland Dr", "City": "Midland", "State": "TX", "Zip Code": "79707-3534", "Latitude": "32.0233644", "Longitude": "-102.1448533", "County": "Midland County"}, {"Store Name": "SW Military Drive", "Store Location": "SWC S Military Dr & Zarzamora", "Address": "2810 SW Military Dr", "City": "San Antonio", "State": "TX", "Zip Code": "78224-1032", "Latitude": "29.3555161", "Longitude": "-98.5430117", "County": "Bexar County"}, {"Store Name": "Fredericksburg", "Store Location": "NWC I-95 & Rte 3", "Address": "1180 Carl D Silver Pkwy", "City": "Fredericksburg", "State": "VA", "Zip Code": "22401-4913", "Latitude": "38.2999338", "Longitude": "-77.5132589", "County": ""}, {"Store Name": "Plainfield", "Store Location": "SEC US 40 & Shady Ln", "Address": "2673 E Main St", "City": "Plainfield", "State": "IN", "Zip Code": "46168-2710", "Latitude": "39.7158548", "Longitude": "-86.3551836", "County": "Hendricks County"}, {"Store Name": "Joplin", "Store Location": "NEC Range Line & 7th St", "Address": "3151 E 7th St", "City": "Joplin", "State": "MO", "Zip Code": "64801-5581", "Latitude": "37.0848818", "Longitude": "-94.4736345", "County": "Jasper County"}, {"Store Name": "Tyler", "Store Location": "SWC US 69 (Broadway) & S Town", "Address": "7003 S Broadway Ave", "City": "Tyler", "State": "TX", "Zip Code": "75703-4737", "Latitude": "32.2730991", "Longitude": "-95.3095835", "County": "Smith County"}, {"Store Name": "Eastland", "Store Location": "SEC 8 Mile Rd & Kelly Rd", "Address": "18000 Vernier Rd", "City": "Harper Woods", "State": "MI", "Zip Code": "48225-1046", "Latitude": "42.4474779", "Longitude": "-82.9353531", "County": "Wayne County"}, {"Store Name": "Fayetteville", "Store Location": "NWC Pavilion Pkwy & State 85", "Address": "107 Pavilion Pkwy", "City": "Fayetteville", "State": "GA", "Zip Code": "30214-4098", "Latitude": "33.481945", "Longitude": "-84.4388742", "County": "Fayette County"}, {"Store Name": "Elizabethtown", "Store Location": "SWC Ring Rd & Gloria Dei Dr", "Address": "1631 Ring Rd", "City": "Elizabethtown", "State": "KY", "Zip Code": "42701-5470", "Latitude": "37.7288167", "Longitude": "-85.8799481", "County": "Hardin County"}, {"Store Name": "Jeffersontown", "Store Location": "SWC Taylorsville & Hurstbourne", "Address": "4640 Taylorsville Rd", "City": "Louisville", "State": "KY", "Zip Code": "40220-3530", "Latitude": "38.2152116", "Longitude": "-85.5951784", "County": "Jefferson County"}, {"Store Name": "Parma", "Store Location": "NWC Ridge Rd & Regency", "Address": "6850 Ridge Rd", "City": "Parma", "State": "OH", "Zip Code": "44129-5627", "Latitude": "41.378104", "Longitude": "-81.7361025", "County": "Cuyahoga County"}, {"Store Name": "Cuyahoga Falls", "Store Location": "NWC Howe Ave & Buchholzer", "Address": "449 Howe Ave", "City": "Cuyahoga Falls", "State": "OH", "Zip Code": "44221-4943", "Latitude": "41.120957", "Longitude": "-81.4773264", "County": "Summit County"}, {"Store Name": "Canton", "Store Location": "NWC I-77 & Everhard Rd", "Address": "5584 Dressler Rd NW", "City": "North Canton", "State": "OH", "Zip Code": "44720-7757", "Latitude": "40.8620994", "Longitude": "-81.431341", "County": "Stark County"}, {"Store Name": "Knoxville NW", "Store Location": "NEC Clinton Hwy & Callahan", "Address": "6670 Clinton Hwy", "City": "Knoxville", "State": "TN", "Zip Code": "37912-1016", "Latitude": "36.0088408", "Longitude": "-84.0216478", "County": "Knox County"}, {"Store Name": "Gainesville", "Store Location": "SWC Skelton Rd & Shallowford", "Address": "514 Shallowford Rd NW", "City": "Gainesville", "State": "GA", "Zip Code": "30504-4154", "Latitude": "34.2900216", "Longitude": "-83.8466718", "County": "Hall County"}, {"Store Name": "Bel-Air", "Store Location": "SEC I-65 & Airport Blvd", "Address": "3150 Bel Air Mall", "City": "Mobile", "State": "AL", "Zip Code": "36606-3203", "Latitude": "30.6712327", "Longitude": "-88.1203096", "County": "Mobile County"}, {"Store Name": "Town & Country", "Store Location": "NWC Waters Ave & Veterans Expy", "Address": "6295 W Waters Ave", "City": "Tampa", "State": "FL", "Zip Code": "33634-1100", "Latitude": "28.028028", "Longitude": "-82.5487952", "County": "Hillsborough County"}, {"Store Name": "North Sarasota", "Store Location": "SEC Fruitville Rd & Honore Ave", "Address": "5350 Fruitville Rd", "City": "Sarasota", "State": "FL", "Zip Code": "34232-6401", "Latitude": "27.3360306", "Longitude": "-82.4626919", "County": "Sarasota County"}, {"Store Name": "College Station", "Store Location": "SWC Texas Ave & Holleman Dr", "Address": "2100 Texas Ave S", "City": "College Station", "State": "TX", "Zip Code": "77840-3918", "Latitude": "30.6101301", "Longitude": "-96.3151339", "County": "Brazos County"}, {"Store Name": "Laredo", "Store Location": "NEC I-35 & Del Mar Blvd W", "Address": "7501 San Dario Ave", "City": "Laredo", "State": "TX", "Zip Code": "78045-7207", "Latitude": "27.5697834", "Longitude": "-99.4993976", "County": "Webb County"}, {"Store Name": "Harlingen", "Store Location": "NWC Grant & Dixieland Rd", "Address": "1002 Dixieland Rd", "City": "Harlingen", "State": "TX", "Zip Code": "78552-5913", "Latitude": "26.1826367", "Longitude": "-97.7222624", "County": "Cameron County"}, {"Store Name": "South Des Moines", "Store Location": "SWC Army Post Rd & SE 14th St", "Address": "1111 E Army Post Rd Ste 2204", "City": "Des Moines", "State": "IA", "Zip Code": "50315-5962", "Latitude": "41.5226464", "Longitude": "-93.602886", "County": "Polk County"}, {"Store Name": "Mason City", "Store Location": "NWC Hwy 18 & Taft Ave", "Address": "3450 4th St SW", "City": "Mason City", "State": "IA", "Zip Code": "50401-1572", "Latitude": "43.1502967", "Longitude": "-93.2528007", "County": "Cerro Gordo County"}, {"Store Name": "Marshfield", "Store Location": "SEC McMillan St & Chestnut Ave", "Address": "1708 N Central Ave", "City": "Marshfield", "State": "WI", "Zip Code": "54449-1514", "Latitude": "44.6844819", "Longitude": "-90.1636309", "County": "Wood County"}, {"Store Name": "Stevens Point", "Store Location": "NEC Hwy 10 E & Maple Bluff Rd", "Address": "5300 US Highway 10 E", "City": "Stevens Point", "State": "WI", "Zip Code": "54482-8551", "Latitude": "44.524925", "Longitude": "-89.5231615", "County": "Portage County"}, {"Store Name": "Oshkosh", "Store Location": "NEC S Koeller St & W 20th Av", "Address": "1900 S Koeller St", "City": "Oshkosh", "State": "WI", "Zip Code": "54902-6153", "Latitude": "43.9987445", "Longitude": "-88.5782208", "County": "Winnebago County"}, {"Store Name": "Fond du Lac", "Store Location": "SWC Co Rd 55 & US Hwy 41", "Address": "485 N Rolling Meadows Dr", "City": "Fond Du Lac", "State": "WI", "Zip Code": "54937-9784", "Latitude": "43.7905739", "Longitude": "-88.484336", "County": "Fond Du Lac County"}, {"Store Name": "Janesville", "Store Location": "NWC Hwy 14 & Route 26", "Address": "2017 Humes Rd", "City": "Janesville", "State": "WI", "Zip Code": "53545-0204", "Latitude": "42.7225097", "Longitude": "-88.9987272", "County": "Rock County"}, {"Store Name": "Rockford", "Store Location": "NEC E State & Trainer Rd", "Address": "6560 E State St", "City": "Rockford", "State": "IL", "Zip Code": "61108-2545", "Latitude": "42.2703614", "Longitude": "-88.9884674", "County": "Winnebago County"}, {"Store Name": "Panama City", "Store Location": "NEC 23rd St & Cove Blvd", "Address": "2340 Highway 77", "City": "Panama City", "State": "FL", "Zip Code": "32405-4404", "Latitude": "30.1916494", "Longitude": "-85.648693", "County": "Bay County"}, {"Store Name": "Brandon", "Store Location": "SWC Brandon Blvd & Providence", "Address": "187 Brandon Town Center Dr", "City": "Brandon", "State": "FL", "Zip Code": "33511-4754", "Latitude": "27.9363231", "Longitude": "-82.323624", "County": "Hillsborough County"}, {"Store Name": "Venice", "Store Location": "NEC Jacaranda & US 41", "Address": "4271 Tamiami Trl S", "City": "Venice", "State": "FL", "Zip Code": "34293-5131", "Latitude": "27.0522673", "Longitude": "-82.3910975", "County": "Sarasota County"}, {"Store Name": "Sawgrass", "Store Location": "NWC W Sunrise Blvd & Flamingo Rd", "Address": "12801 W Sunrise Blvd", "City": "Sunrise", "State": "FL", "Zip Code": "33323-4020", "Latitude": "26.1491969", "Longitude": "-80.324787", "County": "Broward County"}, {"Store Name": "Stuart", "Store Location": "NWC Hwy 1 & Britt Rd", "Address": "2650 NW Federal Hwy", "City": "Stuart", "State": "FL", "Zip Code": "34994-9318", "Latitude": "27.2367697", "Longitude": "-80.272092", "County": "Martin County"}, {"Store Name": "Bradenton", "Store Location": "NWC US 41 & Bayshore Gardens", "Address": "6150 14th St W", "City": "Bradenton", "State": "FL", "Zip Code": "34207-4622", "Latitude": "27.4322772", "Longitude": "-82.5784264", "County": "Manatee County"}, {"Store Name": "Ft Myers", "Store Location": "SEC Daniels Rd & US 41", "Address": "13711 S Tamiami Trl", "City": "Fort Myers", "State": "FL", "Zip Code": "33912-1649", "Latitude": "26.5431797", "Longitude": "-81.8695818", "County": "Lee County"}, {"Store Name": "Clinton Pointe", "Store Location": "NEC Gratiot & Quinn", "Address": "33860 S Gratiot Ave", "City": "Clinton Township", "State": "MI", "Zip Code": "48035-6115", "Latitude": "42.5455421", "Longitude": "-82.9025172", "County": "Macomb County"}, {"Store Name": "Northtown", "Store Location": "NWC 85th & University Ave", "Address": "8600 Springbrook Dr NW", "City": "Coon Rapids", "State": "MN", "Zip Code": "55433-6033", "Latitude": "45.1272888", "Longitude": "-93.2690741", "County": "Anoka County"}, {"Store Name": "Alexandria", "Store Location": "NWC I-94 & Hwy 29", "Address": "4404 Highway 29 S", "City": "Alexandria", "State": "MN", "Zip Code": "56308-2915", "Latitude": "45.849943", "Longitude": "-95.3905112", "County": "Douglas County"}, {"Store Name": "El Paso West", "Store Location": "NEC I-10 & Sunland Park Dr", "Address": "801 Sunland Park Dr", "City": "El Paso", "State": "TX", "Zip Code": "79912-5209", "Latitude": "31.81877", "Longitude": "-106.5465052", "County": "El Paso County"}, {"Store Name": "El Paso East", "Store Location": "NWC George Dieter & Montwood", "Address": "1901 George Dieter Dr", "City": "El Paso", "State": "TX", "Zip Code": "79936-3855", "Latitude": "31.770053", "Longitude": "-106.3057893", "County": "El Paso County"}, {"Store Name": "McAllen", "Store Location": "SEC US 83 Expwy & McColl Rd", "Address": "708 E Expressway 83", "City": "McAllen", "State": "TX", "Zip Code": "78503-1609", "Latitude": "26.1860057", "Longitude": "-98.2133459", "County": "Hidalgo County"}, {"Store Name": "Peoria North", "Store Location": "SEC Bell Rd & 83rd Ave", "Address": "8055 W Bell Rd", "City": "Peoria", "State": "AZ", "Zip Code": "85382-3806", "Latitude": "33.6356242", "Longitude": "-112.228186", "County": "Maricopa County"}, {"Store Name": "Las Vegas NW", "Store Location": "NEC Cheyenne & Tenaya Way", "Address": "3210 N Tenaya Way", "City": "Las Vegas", "State": "NV", "Zip Code": "89129-6239", "Latitude": "36.2191094", "Longitude": "-115.2490234", "County": "Clark County"}, {"Store Name": "Vacaville", "Store Location": "SEC I-80 & Nut Tree Rd", "Address": "3000 Harbison Dr", "City": "Vacaville", "State": "CA", "Zip Code": "95687-3909", "Latitude": "38.360994", "Longitude": "-121.9612658", "County": "Solano County"}, {"Store Name": "Livermore", "Store Location": "SWC 1st St & I-580", "Address": "4300 Las Positas Rd", "City": "Livermore", "State": "CA", "Zip Code": "94551-9641", "Latitude": "37.7013181", "Longitude": "-121.7468402", "County": "Alameda County"}, {"Store Name": "Kennewick", "Store Location": "SEC Columbia Ctr & Quinault", "Address": "1106 N Columbia Center Blvd", "City": "Kennewick", "State": "WA", "Zip Code": "99336-1161", "Latitude": "46.2215492", "Longitude": "-119.2213427", "County": "Benton County"}, {"Store Name": "Scottsbluff", "Store Location": "NEC Hwy 26 & 14th Ave", "Address": "1401 Frontage Rd", "City": "Scottsbluff", "State": "NE", "Zip Code": "69361-2773", "Latitude": "41.8702247", "Longitude": "-103.6425345", "County": "Scotts Bluff County"}, {"Store Name": "Roswell", "Store Location": "SEC N Main St & Wilshire Blvd", "Address": "2725 N Main St", "City": "Roswell", "State": "NM", "Zip Code": "88201-6512", "Latitude": "33.4274961", "Longitude": "-104.5212964", "County": "Chaves County"}, {"Store Name": "Vernon Hills", "Store Location": "SWC Fairway Dr & Rte 60", "Address": "313 E Townline Rd", "City": "Vernon Hills", "State": "IL", "Zip Code": "60061-1555", "Latitude": "42.2387549", "Longitude": "-87.9570835", "County": "Lake County"}, {"Store Name": "Elgin", "Store Location": "SWC US 20 (Lake) & Randall Rd", "Address": "300 S Randall Rd", "City": "Elgin", "State": "IL", "Zip Code": "60123-5525", "Latitude": "42.0258662", "Longitude": "-88.3420981", "County": "Kane County"}, {"Store Name": "West Schaumburg", "Store Location": "SWC Schaumburg & Barrington Rd", "Address": "2621 W Schaumburg Rd", "City": "Schaumburg", "State": "IL", "Zip Code": "60194-3894", "Latitude": "42.0229635", "Longitude": "-88.1465591", "County": "Cook County"}, {"Store Name": "Glendale Heights", "Store Location": "SEC Army Trail Rd & Schmale", "Address": "175 W Army Trail Rd", "City": "Glendale Heights", "State": "IL", "Zip Code": "60139-1971", "Latitude": "41.9370035", "Longitude": "-88.0994102", "County": "Dupage County"}, {"Store Name": "Melrose Park", "Store Location": "SEC North Ave & 9th", "Address": "850 W North Ave", "City": "Melrose Park", "State": "IL", "Zip Code": "60160-1611", "Latitude": "41.9051059", "Longitude": "-87.8435977", "County": "Cook County"}, {"Store Name": "Wheaton", "Store Location": "NEC Roosevelt & County Farm Rd", "Address": "601 S County Farm Rd", "City": "Wheaton", "State": "IL", "Zip Code": "60187-4529", "Latitude": "41.8590761", "Longitude": "-88.1395231", "County": "Dupage County"}, {"Store Name": "Batavia", "Store Location": "NWC Randall Rd & McKee", "Address": "115 N Randall Rd", "City": "Batavia", "State": "IL", "Zip Code": "60510-9209", "Latitude": "41.8522629", "Longitude": "-88.3426804", "County": "Kane County"}, {"Store Name": "Naperville", "Store Location": "NEC Rte 59 & Jefferson", "Address": "1951 W Jefferson Ave", "City": "Naperville", "State": "IL", "Zip Code": "60540-3914", "Latitude": "41.7713918", "Longitude": "-88.2031338", "County": "Dupage County"}, {"Store Name": "Bedford Park", "Store Location": "NWC Cicero Ave & 73rd", "Address": "7100 S Cicero Ave", "City": "Chicago", "State": "IL", "Zip Code": "60629-5813", "Latitude": "41.7629685", "Longitude": "-87.742872", "County": "Cook County"}, {"Store Name": "Orland Park", "Store Location": "NEC LaGrange Rd & 159th", "Address": "15850 S 94th Ave", "City": "Orland Park", "State": "IL", "Zip Code": "60462-4725", "Latitude": "41.602907", "Longitude": "-87.8505351", "County": "Cook County"}, {"Store Name": "Hodgkins", "Store Location": "SEC Joliet Rd & LaGrange", "Address": "9250 Joliet Rd", "City": "Hodgkins", "State": "IL", "Zip Code": "60525-4162", "Latitude": "41.7809798", "Longitude": "-87.8594603", "County": "Cook County"}, {"Store Name": "Tallahassee", "Store Location": "NWC Apalachee & Paul Russell", "Address": "2120 Apalachee Pkwy", "City": "Tallahassee", "State": "FL", "Zip Code": "32301-4819", "Latitude": "30.4329989", "Longitude": "-84.2445337", "County": "Leon County"}, {"Store Name": "Lake Mary", "Store Location": "SWC Lake Mary Blvd & Greenwood", "Address": "4155 W Lake Mary Blvd", "City": "Lake Mary", "State": "FL", "Zip Code": "32746-2410", "Latitude": "28.754256", "Longitude": "-81.3483881", "County": "Seminole County"}, {"Store Name": "Virginia", "Store Location": "NEC 12th Ave & Hwy 53", "Address": "1001 13th St S", "City": "Virginia", "State": "MN", "Zip Code": "55792-3254", "Latitude": "47.5111644", "Longitude": "-92.5491344", "County": "St Louis County"}, {"Store Name": "Aberdeen", "Store Location": "SEC Hwy 12 & Lemont St", "Address": "3316 7th Ave SE", "City": "Aberdeen", "State": "SD", "Zip Code": "57401-6639", "Latitude": "45.4570715", "Longitude": "-98.440256", "County": "Brown County"}, {"Store Name": "El Paso Central", "Store Location": "NEC I-10 & Paisano Dr", "Address": "6001 W Gateway Blvd", "City": "El Paso", "State": "TX", "Zip Code": "79925-3416", "Latitude": "31.7835001", "Longitude": "-106.414297", "County": "El Paso County"}, {"Store Name": "West Las Vegas", "Store Location": "SEC Spring Mountain & Rainbow", "Address": "3550 S Rainbow Blvd", "City": "Las Vegas", "State": "NV", "Zip Code": "89103-1004", "Latitude": "36.1246096", "Longitude": "-115.2409773", "County": "Clark County"}, {"Store Name": "Westridge", "Store Location": "SEC 75th Ave & Virginia Ave", "Address": "7409 W Virginia Ave", "City": "Phoenix", "State": "AZ", "Zip Code": "85035-1336", "Latitude": "33.4756859", "Longitude": "-112.2180274", "County": "Maricopa County"}, {"Store Name": "Rohnert Park", "Store Location": "SWC Rohnert Park Expy & Redwood", "Address": "475 Rohnert Park Expy W", "City": "Rohnert Park", "State": "CA", "Zip Code": "94928-7907", "Latitude": "38.3462064", "Longitude": "-122.7202282", "County": "Sonoma County"}, {"Store Name": "Lodi", "Store Location": "NEC Kettleman & Sacramento Rd", "Address": "2355 W Kettleman Ln", "City": "Lodi", "State": "CA", "Zip Code": "95242-4120", "Latitude": "38.1175307", "Longitude": "-121.3033804", "County": "San Joaquin County"}, {"Store Name": "Tucson NW", "Store Location": "SWC Ina Rd & Thornydale Rd", "Address": "3901 W Ina Rd", "City": "Tucson", "State": "AZ", "Zip Code": "85741-2206", "Latitude": "32.3356638", "Longitude": "-111.0486852", "County": "Pima County"}, {"Store Name": "Tucson NE", "Store Location": "NWC Kolb Rd & Tanque Verde Rd", "Address": "6500 E Grant Rd", "City": "Tucson", "State": "AZ", "Zip Code": "85715-3801", "Latitude": "32.2487563", "Longitude": "-110.852927", "County": "Pima County"}, {"Store Name": "Norfolk", "Store Location": "NEC Center Dr & Market Lane", "Address": "1510 Market Ln", "City": "Norfolk", "State": "NE", "Zip Code": "68701-7328", "Latitude": "42.0182421", "Longitude": "-97.4302383", "County": "Madison County"}, {"Store Name": "Kearney", "Store Location": "NWC 48th St & 2nd Ave", "Address": "4800 3rd Ave", "City": "Kearney", "State": "NE", "Zip Code": "68845-2892", "Latitude": "40.7220502", "Longitude": "-99.0862512", "County": "Buffalo County"}, {"Store Name": "Houston NW", "Store Location": "NEC US 290 & Hollister Rd", "Address": "13250 Northwest Fwy", "City": "Houston", "State": "TX", "Zip Code": "77040-6003", "Latitude": "29.8491707", "Longitude": "-95.5023268", "County": "Harris County"}, {"Store Name": "Watertown", "Store Location": "SEC 19th St & Hwy 212", "Address": "2000 9th Ave SE", "City": "Watertown", "State": "SD", "Zip Code": "57201-5352", "Latitude": "44.8882194", "Longitude": "-97.083772", "County": "Codington County"}, {"Store Name": "Burlington", "Store Location": "NWC Hwy 34 & Gear St", "Address": "525 S Gear Ave", "City": "West Burlington", "State": "IA", "Zip Code": "52655-1031", "Latitude": "40.8211158", "Longitude": "-91.1724645", "County": "Des Moines County"}, {"Store Name": "Buffalo", "Store Location": "SEC Hwy 55E & CSAH # 34", "Address": "1300 State Highway 55 NE", "City": "Buffalo", "State": "MN", "Zip Code": "55313-4321", "Latitude": "45.1647252", "Longitude": "-93.8551479", "County": "Wright County"}, {"Store Name": "Chanhassen", "Store Location": "NEC Hwy 5 & Powers Blvd", "Address": "851 W 78th St", "City": "Chanhassen", "State": "MN", "Zip Code": "55317-9579", "Latitude": "44.8613592", "Longitude": "-93.5423339", "County": "Carver County"}, {"Store Name": "Menomonee Falls", "Store Location": "SEC Appleton & County Rd Q", "Address": "N95 W 17707 Shady Ln", "City": "Menomonee Falls", "State": "WI", "Zip Code": "53051-8012", "Latitude": "43.189095", "Longitude": "-88.1295311", "County": "Waukesha County"}, {"Store Name": "Delafield", "Store Location": "SWC Hwy 83 & I-94", "Address": "2553 Sun Valley Dr", "City": "Delafield", "State": "WI", "Zip Code": "53018-2333", "Latitude": "43.0510383", "Longitude": "-88.3774286", "County": "Waukesha County"}, {"Store Name": "Gurnee", "Store Location": "SWC Hunt Club Rd & Grand Ave", "Address": "6601 Grand Ave", "City": "Gurnee", "State": "IL", "Zip Code": "60031-4591", "Latitude": "42.3829715", "Longitude": "-87.9662395", "County": "Lake County"}, {"Store Name": "Woodridge", "Store Location": "SWC 75th St & Dunham", "Address": "2333 63rd St", "City": "Woodridge", "State": "IL", "Zip Code": "60517-1300", "Latitude": "41.7704081", "Longitude": "-88.0387096", "County": "Dupage County"}, {"Store Name": "Bolingbrook", "Store Location": "NEC Boughton Rd & Naperville", "Address": "1188 W Boughton Rd", "City": "Bolingbrook", "State": "IL", "Zip Code": "60440-1508", "Latitude": "41.7053338", "Longitude": "-88.121944", "County": "Will County"}, {"Store Name": "Crestwood", "Store Location": "SWC Cicero & Cal Sag Rd", "Address": "5071 Cal Sag Rd", "City": "Crestwood", "State": "IL", "Zip Code": "60445-1458", "Latitude": "41.6568513", "Longitude": "-87.7464206", "County": "Cook County"}, {"Store Name": "Lake County", "Store Location": "SWC US 30 & Colorado Str", "Address": "2661 E US Highway 30", "City": "Merrillville", "State": "IN", "Zip Code": "46410-5898", "Latitude": "41.4689513", "Longitude": "-87.3033499", "County": "Lake County"}, {"Store Name": "Peoria", "Store Location": "NWC Hwy 150 & Glen Ave", "Address": "5001 N Big Hollow Rd", "City": "Peoria", "State": "IL", "Zip Code": "61615-3538", "Latitude": "40.7504741", "Longitude": "-89.6362281", "County": "Peoria County"}, {"Store Name": "West Livonia", "Store Location": "SWC 8 Mile Rd & I-96/275", "Address": "20100 Haggerty Rd", "City": "Livonia", "State": "MI", "Zip Code": "48152-1087", "Latitude": "42.4343334", "Longitude": "-83.4308707", "County": "Wayne County"}, {"Store Name": "Ocala", "Store Location": "NEC College Rd & 17th St", "Address": "2000 SW College Rd", "City": "Ocala", "State": "FL", "Zip Code": "34471-3020", "Latitude": "29.1742943", "Longitude": "-82.1567108", "County": "Marion County"}, {"Store Name": "Orange City", "Store Location": "NEC Enterprise Rd & Saxon", "Address": "2575 Enterprise Rd", "City": "Orange City", "State": "FL", "Zip Code": "32763-7960", "Latitude": "28.9163608", "Longitude": "-81.2923796", "County": "Volusia County"}, {"Store Name": "Cityplace Market", "Store Location": "NEC US 75 & Lemmon", "Address": "2417 N Haskell Ave", "City": "Dallas", "State": "TX", "Zip Code": "75204-3707", "Latitude": "32.8037747", "Longitude": "-96.7915365", "County": "Dallas County"}, {"Store Name": "Grapevine", "Store Location": "SEC Hwy 26 & Hwy 114", "Address": "1101 Ira E Woods Ave", "City": "Grapevine", "State": "TX", "Zip Code": "76051-4020", "Latitude": "32.9308082", "Longitude": "-97.0890106", "County": "Tarrant County"}, {"Store Name": "Hollywood", "Store Location": "NEC Hollywood Blvd & Park Rd", "Address": "3251 Hollywood Blvd", "City": "Hollywood", "State": "FL", "Zip Code": "33021-6904", "Latitude": "26.0139282", "Longitude": "-80.1739903", "County": "Broward County"}, {"Store Name": "Fort Dodge", "Store Location": "NEC 1st Ave & 25th St", "Address": "2910 1st Ave S", "City": "Fort Dodge", "State": "IA", "Zip Code": "50501-2972", "Latitude": "42.5065969", "Longitude": "-94.1569195", "County": "Webster County"}, {"Store Name": "Lincoln South", "Store Location": "NEC Hwy 2 & S 56th", "Address": "5330 S 56th St", "City": "Lincoln", "State": "NE", "Zip Code": "68516-1833", "Latitude": "40.7599154", "Longitude": "-96.6408752", "County": "Lancaster County"}, {"Store Name": "Woodfield", "Store Location": "SWC Meacham & Higgins Rd", "Address": "1235 E Higgins Rd", "City": "Schaumburg", "State": "IL", "Zip Code": "60173-4939", "Latitude": "42.0375267", "Longitude": "-88.0489356", "County": "Cook County"}, {"Store Name": "Eagle Creek", "Store Location": "SWC W 38th St & Hwy 465", "Address": "6925 W 38th St", "City": "Indianapolis", "State": "IN", "Zip Code": "46254-3905", "Latitude": "39.8232422", "Longitude": "-86.2816311", "County": "Marion County"}, {"Store Name": "Lake Jackson", "Store Location": "SWC 332 & CR 856", "Address": "202 Highway 332 W", "City": "Lake Jackson", "State": "TX", "Zip Code": "77566-4013", "Latitude": "29.0504687", "Longitude": "-95.4650988", "County": "Brazoria County"}, {"Store Name": "Pasadena", "Store Location": "NWC Hudson Ave & Colorado Blvd", "Address": "777 E Colorado Blvd", "City": "Pasadena", "State": "CA", "Zip Code": "91101-2104", "Latitude": "34.1464421", "Longitude": "-118.1345697", "County": "Los Angeles County"}, {"Store Name": "Prescott", "Store Location": "SWC Hwy 69 & Grant St", "Address": "1851 E Highway 69", "City": "Prescott", "State": "AZ", "Zip Code": "86301-5665", "Latitude": "34.5509531", "Longitude": "-112.4338936", "County": "Yavapai County"}, {"Store Name": "Missoula", "Store Location": "NEC Reserve St & Mullan St", "Address": "2420 N Reserve St", "City": "Missoula", "State": "MT", "Zip Code": "59808-1317", "Latitude": "46.8879787", "Longitude": "-114.0365166", "County": "Missoula County"}, {"Store Name": "Baytown", "Store Location": "NEC Garth & Baker Roads", "Address": "4510 Garth Rd", "City": "Baytown", "State": "TX", "Zip Code": "77521-2124", "Latitude": "29.7719603", "Longitude": "-94.9758885", "County": "Harris County"}, {"Store Name": "Victoria", "Store Location": "NWC Hwy 77 & Hwy 463", "Address": "7608 NE Zac Lentz Pkwy", "City": "Victoria", "State": "TX", "Zip Code": "77904-1390", "Latitude": "28.8660124", "Longitude": "-96.999419", "County": "Victoria County"}, {"Store Name": "Galesburg", "Store Location": "SWC Hwy 150 & US 34", "Address": "1071 W Carl Sandburg Dr", "City": "Galesburg", "State": "IL", "Zip Code": "61401-1343", "Latitude": "40.9758657", "Longitude": "-90.3878731", "County": "Knox County"}, {"Store Name": "Wood Dale", "Store Location": "NWC Irving & Addison Rd", "Address": "401 W Irving Park Rd", "City": "Wood Dale", "State": "IL", "Zip Code": "60191-1338", "Latitude": "41.961679", "Longitude": "-87.9653531", "County": "Dupage County"}, {"Store Name": "Joliet", "Store Location": "SEC Stateville Rd & US 30", "Address": "2701 Plainfield Rd", "City": "Joliet", "State": "IL", "Zip Code": "60435-1166", "Latitude": "41.5771379", "Longitude": "-88.1536857", "County": "Will County"}, {"Store Name": "Bradley", "Store Location": "NWC I-57 & State Hwy 50", "Address": "1615 N State Route 50", "City": "Bourbonnais", "State": "IL", "Zip Code": "60914-9303", "Latitude": "41.1741667", "Longitude": "-87.8542794", "County": "Kankakee County"}, {"Store Name": "Commerce Township", "Store Location": "SWC Commerce Crossing Rd & Haggerty Hwy", "Address": "495 Haggerty Hwy", "City": "Walled Lake", "State": "MI", "Zip Code": "48390-3936", "Latitude": "42.5513866", "Longitude": "-83.4750241", "County": "Oakland County"},